[{"lat":52.542387394849,"lon":13.347768545282,"COVID-19 aktuell":19,"Klinikname":"Charité - Universitätsmedizin Berlin ARDS/ECMO-Zentrum"},{"lat":51.44546526290301,"lon":7.033164024288,"COVID-19 aktuell":2,"Klinikname":"Elisabeth-Krankenhaus Essen"},{"lat":52.284712952122,"lon":14.063543915945,"COVID-19 aktuell":1,"Klinikname":"Helios Klinikum Bad Saarow"},{"lat":50.701534412031,"lon":7.102468227649,"COVID-19 aktuell":3,"Klinikname":"Universitätsklinikum Bonn"},{"lat":49.600814436059,"lon":11.010412752612,"COVID-19 aktuell":4,"Klinikname":"Universitätsklinikum Erlangen"},{"lat":51.058086530837,"lon":13.77770733835,"COVID-19 aktuell":5,"Klinikname":"Universitätsklinikum Dresden"},{"lat":53.589913025365,"lon":9.974761963021999,"COVID-19 aktuell":18,"Klinikname":"Universitätsklinikum Hamburg-Eppendorf"},{"lat":50.576552378551,"lon":8.664676129802,"COVID-19 aktuell":0,"Klinikname":"Universitätsklinikum Gießen / Marburg"},{"lat":49.762079222288996,"lon":6.6406795978629996,"COVID-19 aktuell":0,"Klinikname":"Brüderkrankenhaus Trier"},{"lat":50.994088107173994,"lon":11.011598825553,"COVID-19 aktuell":1,"Klinikname":"HELIOS Klinikum Erfurt"},{"lat":50.776221763856,"lon":6.043888092172001,"COVID-19 aktuell":16,"Klinikname":"Universitätsklinik RWTH Aachen"},{"lat":51.961204012648004,"lon":7.595886111849,"COVID-19 aktuell":3,"Klinikname":"Universitätsklinikum Münster"},{"lat":51.550535752979,"lon":9.942435720004,"COVID-19 aktuell":5,"Klinikname":"Universitätsmedizin Göttingen"},{"lat":51.509104715874,"lon":7.455439746363,"COVID-19 aktuell":0,"Klinikname":"Klinikum Dortmund"},{"lat":54.085558886271,"lon":12.101712405665,"COVID-19 aktuell":1,"Klinikname":"Universitätsmedizin Rostock"},{"lat":52.270038404085,"lon":8.053050398794,"COVID-19 aktuell":10,"Klinikname":"Marienhospital Osnabrück"},{"lat":48.111138440404,"lon":11.471995174934001,"COVID-19 aktuell":17,"Klinikname":"Universität München Campus Großhadern"},{"lat":50.107939612681996,"lon":8.543833494186,"COVID-19 aktuell":9,"Klinikname":"Klinikum Frankfurt Höchst"},{"lat":50.938275499264,"lon":7.053503966017,"COVID-19 aktuell":9,"Klinikname":"ARDS und ECMO Zentrum Köln-Merheim, Kliniken der Stadt Köln,"},{"lat":51.485216294599,"lon":7.222674965842001,"COVID-19 aktuell":2,"Klinikname":"Augusta-Kliniken Bochum-Mitte"},{"lat":47.562595220997,"lon":10.227857351319999,"COVID-19 aktuell":4,"Klinikname":"Klinikverbund Allgäu - Klinik Immenstadt"},{"lat":48.898362324729995,"lon":9.203446626598,"COVID-19 aktuell":22,"Klinikname":"RKH Klinikum Ludwigsburg"},{"lat":49.807103506384,"lon":9.958309024564,"COVID-19 aktuell":14,"Klinikname":"Universitätsklinikum Würzburg"},{"lat":53.375643708806,"lon":7.212860763057,"COVID-19 aktuell":2,"Klinikname":"Klinikum Emden interdisziplinäre Intensivmedizin"},{"lat":48.155701228804,"lon":11.510060548717,"COVID-19 aktuell":12,"Klinikname":"Barmherzige Brüder München"},{"lat":53.075136342809,"lon":8.837436676058001,"COVID-19 aktuell":1,"Klinikname":"Klinikum Bremen Mitte"},{"lat":53.835847270403995,"lon":10.708594903235001,"COVID-19 aktuell":0,"Klinikname":"Universitätsklinikum Schleswig-Holstein"},{"lat":53.470879874845,"lon":9.93764555451,"COVID-19 aktuell":3,"Klinikname":"Asklepios Klinikum Hamburg-Harburg"},{"lat":52.126395097108,"lon":8.700473427789,"COVID-19 aktuell":0,"Klinikname":"Klinikum Herford"},{"lat":51.328164739627,"lon":9.509411573345,"COVID-19 aktuell":3,"Klinikname":"ARDS und ECLS/ECMO-Zentrum Klinikum Kassel"},{"lat":51.331383154482005,"lon":12.386209113038001,"COVID-19 aktuell":2,"Klinikname":"Universitätsklinikum Leipzig"},{"lat":49.377395602476994,"lon":8.689904853698,"COVID-19 aktuell":3,"Klinikname":"Thoraxklinik des Universitätsklinikums Heidelberg"},{"lat":51.27304312559399,"lon":7.170935153945,"COVID-19 aktuell":18,"Klinikname":"Helios Universitätsklinikum Wuppertal"},{"lat":54.297086924599,"lon":9.659486532146,"COVID-19 aktuell":7,"Klinikname":"imland Klinik Rendsburg"},{"lat":49.49142711994799,"lon":8.487168073589,"COVID-19 aktuell":8,"Klinikname":"Universitätsmedizin Mannheim"},{"lat":48.987983204496004,"lon":12.09049057954,"COVID-19 aktuell":17,"Klinikname":"Universitätsklinikum Regensburg"},{"lat":48.422632793115994,"lon":9.952504992452,"COVID-19 aktuell":8,"Klinikname":"Universitätsklinikum Ulm"},{"lat":51.464353367673,"lon":7.3274281025259995,"COVID-19 aktuell":1,"Klinikname":"Universitätsklinikum Knappschaftskrankenhaus Bochum"},{"lat":51.436266579469006,"lon":6.989787407219,"COVID-19 aktuell":7,"Klinikname":"Universitätsklinikum Essen"},{"lat":49.308912016795,"lon":7.3457320332360005,"COVID-19 aktuell":1,"Klinikname":"Universitätsklinikum des Saarlandes"},{"lat":48.88855931467,"lon":8.711673259768,"COVID-19 aktuell":2,"Klinikname":"Helios Klinikum Pforzheim"},{"lat":51.468139741933,"lon":7.2120126486150005,"COVID-19 aktuell":1,"Klinikname":"BG Universitätsklinikum Bergmannsheil Bochum"},{"lat":52.57138797223,"lon":13.413936280011999,"COVID-19 aktuell":1,"Klinikname":"Caritas-Klinik Berlin-Pankow"},{"lat":50.923308887945005,"lon":6.917503255522,"COVID-19 aktuell":8,"Klinikname":"Uniklinik Köln Internistische Intensivstation ECMO Zentrum"},{"lat":51.218465487226,"lon":6.419624588634,"COVID-19 aktuell":5,"Klinikname":"Kliniken Maria Hilf GmbH"},{"lat":52.519049415154,"lon":13.566016137584,"COVID-19 aktuell":7,"Klinikname":"BG Klinikum Unfallkrankenhaus Berlin gGmbH - UKB"},{"lat":53.142667947088,"lon":8.205731391972,"COVID-19 aktuell":3,"Klinikname":"Evangelisches Krankenhaus Oldenburg"},{"lat":50.818603278644,"lon":6.264195620997,"COVID-19 aktuell":3,"Klinikname":"St.-Antonius-Hospital gGmbH Eschweiler"},{"lat":53.143626813834,"lon":8.21041989333,"COVID-19 aktuell":0,"Klinikname":"Pius-Hospital Oldenburg"},{"lat":51.560000720476,"lon":10.839835524657,"COVID-19 aktuell":1,"Klinikname":"Lungenklinik Neustadt"},{"lat":48.137004031183004,"lon":11.598835229825001,"COVID-19 aktuell":24,"Klinikname":"Klinikum rechts der Isar der TU München Klinik für Anästhesiologie und Intensivmedizin"},{"lat":49.549707590859,"lon":8.645036995395,"COVID-19 aktuell":1,"Klinikname":"GRN-Klinik Weinheim"},{"lat":48.533593888862,"lon":9.035523176226,"COVID-19 aktuell":0,"Klinikname":"BG Klinik Tübingen"},{"lat":52.491268519874,"lon":13.292226970179,"COVID-19 aktuell":3,"Klinikname":"Martin Luther Krankenhaus, Berlin"},{"lat":52.132198842072,"lon":13.616511300133,"COVID-19 aktuell":0,"Klinikname":"Asklepios Fachkliniken Teupitz und Lübben"},{"lat":51.606482277585,"lon":7.191815078258999,"COVID-19 aktuell":5,"Klinikname":"Prosper-Hospital Recklinghausen Proselis Stiftungsklinik"},{"lat":49.70655896432,"lon":7.677172601207,"COVID-19 aktuell":0,"Klinikname":"Gesundheitszentrum Glantal"},{"lat":52.725877094715,"lon":8.286903619701,"COVID-19 aktuell":3,"Klinikname":"St. Marienhospital Vechta gGmbH"},{"lat":52.725877094715,"lon":8.286903619701,"COVID-19 aktuell":0,"Klinikname":"St. Marienhospital Vechta gGmbH"},{"lat":52.68315170541099,"lon":13.582613663747999,"COVID-19 aktuell":6,"Klinikname":"Immanuel Klinikum Bernau Herzzentrum Brandenburg"},{"lat":50.884082549873,"lon":8.01902496818,"COVID-19 aktuell":0,"Klinikname":"DRK Kinderklinik"},{"lat":53.586897568381005,"lon":10.164517521907001,"COVID-19 aktuell":0,"Klinikname":"Katholisches Kinderkrankenhaus Wilhelmstift"},{"lat":54.090704899466,"lon":11.905740022594,"COVID-19 aktuell":0,"Klinikname":"Sanakrankenhaus Bad Doberan"},{"lat":49.563856902112,"lon":8.157812386735,"COVID-19 aktuell":2,"Klinikname":"Kreiskrankenhaus Grünstadt"},{"lat":51.396954869070996,"lon":6.783368825945,"COVID-19 aktuell":2,"Klinikname":"Sana Kliniken Duisburg"},{"lat":49.504915584592,"lon":11.729883151129,"COVID-19 aktuell":3,"Klinikname":"St. Anna Krankenhaus"},{"lat":51.985350926225,"lon":9.273886263354,"COVID-19 aktuell":1,"Klinikname":"AGAPLESION Ev. Bathildiskrankenhaus"},{"lat":49.340971867017004,"lon":7.183249779046,"COVID-19 aktuell":0,"Klinikname":"Diakonieklinikum Neunkirchen"},{"lat":48.023886676398,"lon":7.815443426371,"COVID-19 aktuell":4,"Klinikname":"Evangelisches Diakoniekrankenhaus Freiburg"},{"lat":52.278697336133,"lon":7.71369731423,"COVID-19 aktuell":1,"Klinikname":"Klinikum Ibbenbüren"},{"lat":51.287179914400994,"lon":13.539129138025999,"COVID-19 aktuell":0,"Klinikname":"ELBLAND Reha- und Präventions-GmbH"},{"lat":52.153615720019,"lon":10.318831443818999,"COVID-19 aktuell":2,"Klinikname":"Helios Klinikum Salzgitter"},{"lat":52.496605133344005,"lon":10.548190569498,"COVID-19 aktuell":1,"Klinikname":"Helios Klinikum Gifhorn"},{"lat":50.602327746440004,"lon":10.708873987132,"COVID-19 aktuell":3,"Klinikname":"SRH Zentralklinikum Suhl"},{"lat":48.672888376688995,"lon":10.140581488618,"COVID-19 aktuell":4,"Klinikname":"Klinikum Heidenheim"},{"lat":52.267193219049,"lon":12.924351230257999,"COVID-19 aktuell":0,"Klinikname":"Kliniken Beelitz GmbH / Fachkrankenhaus für Neurologische Frührehabilitation"},{"lat":54.328989260509005,"lon":13.079763829691998,"COVID-19 aktuell":0,"Klinikname":"Helios Hanseklinikum Stralsund"},{"lat":49.362132616063995,"lon":11.263945341143,"COVID-19 aktuell":0,"Klinikname":"Krankenhaus Rummelsberg GmbH Schwarzenbruck b. Nürnberg - Sana AG"},{"lat":52.56240480009,"lon":13.157562375036,"COVID-19 aktuell":1,"Klinikname":"Ev. Waldkrankenhaus Spandau"},{"lat":50.138324479783,"lon":11.08082020286,"COVID-19 aktuell":4,"Klinikname":"Klinikum Lichtenfels"},{"lat":50.116926902221,"lon":8.697997212394,"COVID-19 aktuell":0,"Klinikname":"Klinik Rotes Kreuz Frankfurt/ Main"},{"lat":53.569834053909,"lon":10.088993489766999,"COVID-19 aktuell":6,"Klinikname":"Asklepiosklinik Wandsbek, Hamburg"},{"lat":51.314017098388994,"lon":9.462657451695,"COVID-19 aktuell":0,"Klinikname":"AGAPLESION DIAKONIE KLINIKEN KASSEL gGmbH"},{"lat":52.46171655277001,"lon":13.160881661733999,"COVID-19 aktuell":0,"Klinikname":"Gemeinschaftskrankenhaus Havelhöhe"},{"lat":51.392817822432,"lon":7.765916168673001,"COVID-19 aktuell":3,"Klinikname":"Lungenklinik Hemer"},{"lat":53.486210224153005,"lon":10.235927581853,"COVID-19 aktuell":3,"Klinikname":"Bethesda Krankenhaus Bergedorf"},{"lat":51.300240747791996,"lon":6.852114915782,"COVID-19 aktuell":2,"Klinikname":"Sankt Marien Krankenhaus Ratingen"},{"lat":48.566439437968995,"lon":13.446212589724,"COVID-19 aktuell":0,"Klinikname":"Kliniken Dritter Orden - Standort Kinderklinik Passau"},{"lat":51.509104715874,"lon":7.455439746363,"COVID-19 aktuell":8,"Klinikname":"Klinikum Dortmund gGmbH"},{"lat":50.195354613092,"lon":11.793603086589,"COVID-19 aktuell":2,"Klinikname":"Kliniken HochFranken"},{"lat":52.906364286635,"lon":12.797664641875999,"COVID-19 aktuell":1,"Klinikname":"Ruppiner Kliniken"},{"lat":51.534029262211,"lon":7.4540645778100005,"COVID-19 aktuell":0,"Klinikname":"Klinikum Dortmund gGmbH, KLZ Nord, Station ND1"},{"lat":47.75976089215,"lon":8.821524471036,"COVID-19 aktuell":7,"Klinikname":"Hegau-Bodensee-Klinikum (HBK) - Standort Singen"},{"lat":51.19860988881,"lon":7.351010084185,"COVID-19 aktuell":0,"Klinikname":"Sana Krankenhaus Radevormwald"},{"lat":49.998422625474994,"lon":8.683548688823,"COVID-19 aktuell":4,"Klinikname":"Asklepios Klinik Langen"},{"lat":50.899258108901996,"lon":14.820976951160002,"COVID-19 aktuell":0,"Klinikname":"Klinikum Oberlausitzer Bergland gGmbH"},{"lat":49.94384828447001,"lon":11.534236907992,"COVID-19 aktuell":15,"Klinikname":"Klinikum Bayreuth GmbH"},{"lat":51.474229698028005,"lon":6.866135358778,"COVID-19 aktuell":1,"Klinikname":"Ev. Krankenhaus Oberhausen"},{"lat":52.438175472559,"lon":13.458396685181999,"COVID-19 aktuell":0,"Klinikname":"Vivantes Klinikum Neukölln"},{"lat":48.06630037314,"lon":11.353591203624001,"COVID-19 aktuell":5,"Klinikname":"Asklepios Lungenfachklinik München-Gauting"},{"lat":50.971663609429996,"lon":12.439656257629002,"COVID-19 aktuell":0,"Klinikname":"Neonatologie Klinikum Altenburger Land"},{"lat":49.716390274005,"lon":7.321047918506,"COVID-19 aktuell":0,"Klinikname":"Klinikum Idar-Oberstein"},{"lat":53.380587745061,"lon":13.05248388639,"COVID-19 aktuell":0,"Klinikname":"Krankenhaus Mecklenburg Strelitz"},{"lat":52.631418701813004,"lon":13.511301755971001,"COVID-19 aktuell":1,"Klinikname":"Helios Klinikum Berlin-Buch"},{"lat":48.76125464519399,"lon":9.163320243383,"COVID-19 aktuell":0,"Klinikname":"Marienhospital Stuttgart"},{"lat":49.293353749032,"lon":10.792796444001999,"COVID-19 aktuell":1,"Klinikname":"Klinik Neuendettelsau"},{"lat":51.50106510347901,"lon":11.934980928963,"COVID-19 aktuell":1,"Klinikname":"Universitätsklinikum Halle (Saale)"},{"lat":51.264083323859,"lon":14.123152256143,"COVID-19 aktuell":0,"Klinikname":"Malteser Krankenhaus Kamenz"},{"lat":48.281611472434996,"lon":10.822921514609,"COVID-19 aktuell":0,"Klinikname":"Wertachklinik Bobingen"},{"lat":50.576552378551,"lon":8.664676129802,"COVID-19 aktuell":6,"Klinikname":"Universitätsklinikum Gießen und Marburg, Standort Gießen"},{"lat":53.112105072622,"lon":8.217821824574,"COVID-19 aktuell":7,"Klinikname":"Klinikum Oldenburg AöR"},{"lat":51.131220411480996,"lon":13.593594074282,"COVID-19 aktuell":1,"Klinikname":"Fachkrankenhaus Coswig GmbH"},{"lat":48.00524474827699,"lon":7.839340925129,"COVID-19 aktuell":27,"Klinikname":"Universitätsklinikum Freiburg"},{"lat":51.198902335442,"lon":6.42537492512,"COVID-19 aktuell":1,"Klinikname":"Johanniter GmbH - Ev. Krankenhaus Bethesda Mönchengladbach"},{"lat":48.783202666072995,"lon":9.173708438857,"COVID-19 aktuell":8,"Klinikname":"Klinikum Stuttgart"},{"lat":53.595440432972005,"lon":9.443376767658,"COVID-19 aktuell":0,"Klinikname":"Elbeklinikum Stade"},{"lat":51.51152274977,"lon":7.457698702829,"COVID-19 aktuell":0,"Klinikname":"St-Johannes-Hospital Dortmund"},{"lat":53.848800488052,"lon":10.687592804416,"COVID-19 aktuell":0,"Klinikname":"Sana Kliniken Lübeck"},{"lat":49.203580939665,"lon":12.035078582153,"COVID-19 aktuell":5,"Klinikname":"Asklepios Klinik Burglengenfeld"},{"lat":49.982859678145,"lon":7.926482319881001,"COVID-19 aktuell":0,"Klinikname":"St. Josefs- Hospital Rheingau"},{"lat":49.67828037074099,"lon":8.620446503146,"COVID-19 aktuell":3,"Klinikname":"HGH Bensheim"},{"lat":53.631362490632,"lon":9.905442953241,"COVID-19 aktuell":1,"Klinikname":"Albertinen-Krankenhaus"},{"lat":48.76125464519399,"lon":9.163320243383,"COVID-19 aktuell":8,"Klinikname":"Marienhospital Stuttgart; Vinzenz von Paul Kliniken GmbH"},{"lat":51.267262415816,"lon":8.870632097121,"COVID-19 aktuell":0,"Klinikname":"Hessenklinik Stadtkrankenhaus Korbach gGmbH"},{"lat":52.441800385762996,"lon":13.320401430065,"COVID-19 aktuell":0,"Klinikname":"Klinik für Anästhesiologie m. S. operative Intensivmedizin, Charité Campus Benjamin Franklin"},{"lat":53.083509886869,"lon":8.836106836778999,"COVID-19 aktuell":0,"Klinikname":"Krankenhaus St.Joseph-Stift Bremen"},{"lat":53.104505059312004,"lon":9.411837101179,"COVID-19 aktuell":0,"Klinikname":"Agaplesion Diakonieklinikum Rotenburg "},{"lat":51.928337031875,"lon":10.441874161359,"COVID-19 aktuell":3,"Klinikname":"Asklepios Harzkliniken Goslar"},{"lat":50.913512149301006,"lon":8.523131199181,"COVID-19 aktuell":0,"Klinikname":"DRK-Krankenhaus Biedenkopf"},{"lat":51.445547477624,"lon":6.639752465771,"COVID-19 aktuell":0,"Klinikname":"St. Josef Krankenhaus GmbH Moers"},{"lat":50.920546649356005,"lon":13.350871324474001,"COVID-19 aktuell":0,"Klinikname":"Kreiskrankenhaus Freiberg gGmbH"},{"lat":51.311906311998996,"lon":9.454094264656,"COVID-19 aktuell":2,"Klinikname":"DRK Kliniken Nordhessen"},{"lat":53.594013956273,"lon":10.074613094330001,"COVID-19 aktuell":3,"Klinikname":"Bundeswehrkrankenhaus Hamburg"},{"lat":48.737131873676994,"lon":9.326441483572001,"COVID-19 aktuell":10,"Klinikname":"Klinikum Esslingen"},{"lat":48.237224764413995,"lon":10.365919098217,"COVID-19 aktuell":0,"Klinikname":"Kreiskliniken Günzburg-Krumbach, Klinik Krumbach"},{"lat":50.840603646608,"lon":12.962685406192,"COVID-19 aktuell":0,"Klinikname":"Zeisigwaldkliniken Bethanien Chemnitz im Verbund der Agaplesion"},{"lat":50.981105845761995,"lon":12.984504606575001,"COVID-19 aktuell":0,"Klinikname":"Landkreis Mittweida Krankenhaus gGmbH"},{"lat":50.355980883861,"lon":7.564584195597,"COVID-19 aktuell":6,"Klinikname":"Katholisches Klinikum Koblenz-Montabaur"},{"lat":50.485700411875,"lon":8.252862811241,"COVID-19 aktuell":0,"Klinikname":"Kreiskrankenhaus Weilburg"},{"lat":49.457251697955996,"lon":6.633046781570999,"COVID-19 aktuell":1,"Klinikname":"Klinikum Merzig"},{"lat":53.064512794576,"lon":8.940360546112,"COVID-19 aktuell":2,"Klinikname":"Klinikum-Bremen-Ost"},{"lat":48.572270325445004,"lon":11.264355933213,"COVID-19 aktuell":3,"Klinikname":"Kreiskrankenhaus Schrobenhausen GmbH"},{"lat":54.085558886271,"lon":12.101712405665,"COVID-19 aktuell":1,"Klinikname":"Universitätsmedizin Rostock - Internistische Intensivstation"},{"lat":49.221065672421,"lon":6.996766018751,"COVID-19 aktuell":11,"Klinikname":"Zentrum für Intensiv- und Notfallmedizin, Klinikum Saarbrücken"},{"lat":47.611723599429,"lon":9.881648004039,"COVID-19 aktuell":2,"Klinikname":"Rotkreuzklinik Lindenberg gGmbH"},{"lat":48.783142647431,"lon":9.170659946976,"COVID-19 aktuell":0,"Klinikname":"Sana Herzchirurgie Stuttgart"},{"lat":51.66942122267201,"lon":10.343406915599001,"COVID-19 aktuell":4,"Klinikname":"Helios Klinik Herzberg und Osterode"},{"lat":50.076387329685,"lon":8.254051923686,"COVID-19 aktuell":3,"Klinikname":"St. Josefs-Hospital Wiesbaden"},{"lat":48.065172915773,"lon":8.499393045886,"COVID-19 aktuell":5,"Klinikname":"Schwarzwald-Baar Klinikum"},{"lat":51.411240450433,"lon":7.399306207903,"COVID-19 aktuell":0,"Klinikname":"GKH Herdecke gGmbH"},{"lat":53.812444400356,"lon":10.363880753484,"COVID-19 aktuell":0,"Klinikname":"Asklepios Klinik Bad Oldesloe"},{"lat":50.748187961400006,"lon":12.635738611352,"COVID-19 aktuell":0,"Klinikname":"DRK Krankenhaus Lichtenstein Gemeinnützige GmbH"},{"lat":47.67170922768501,"lon":11.216090440685,"COVID-19 aktuell":2,"Klinikname":"BG - Unfallklinik Murnau"},{"lat":48.42440919851,"lon":9.945088148052,"COVID-19 aktuell":0,"Klinikname":"RKU - Universitäts- und Rehabilitationskliniken Ulm gGmbH"},{"lat":54.92532223007301,"lon":8.31349825864,"COVID-19 aktuell":0,"Klinikname":"Asklepios Nordseeklinik Westerland/ Sylt"},{"lat":53.258816264447,"lon":7.918362200244,"COVID-19 aktuell":2,"Klinikname":"Klinikzentrum Westerstede"},{"lat":52.424282933774,"lon":13.348081827098,"COVID-19 aktuell":0,"Klinikname":"St. Marien-Krankenhaus Berlin"},{"lat":54.419653232211,"lon":13.428819590868,"COVID-19 aktuell":0,"Klinikname":"Sana-Krankenhaus Rügen GmbH"},{"lat":51.510657213551,"lon":7.175529241595,"COVID-19 aktuell":1,"Klinikname":"EvK Herne, Bst. Eickel, Thoraxzentrum Ruhrgebiet"},{"lat":53.660951156943,"lon":10.280925393072,"COVID-19 aktuell":0,"Klinikname":"Lungenclinic Großhansdorf"},{"lat":52.099865670543004,"lon":13.179556488958001,"COVID-19 aktuell":0,"Klinikname":"KMG Klinikum Luckenwalde"},{"lat":48.848839142222005,"lon":10.084305524761,"COVID-19 aktuell":0,"Klinikname":"Ostalbklinikum Aalen"},{"lat":52.264749649631995,"lon":9.105277776653,"COVID-19 aktuell":0,"Klinikname":"Agaplesion ev. Klinikum Schaumburg"},{"lat":50.941368283966,"lon":7.009345471842999,"COVID-19 aktuell":3,"Klinikname":"Evangelisches Krankenhaus Kalk in Köln (EVKK)"},{"lat":48.096537126169004,"lon":9.773589849538,"COVID-19 aktuell":10,"Klinikname":"Sanaklinik Biberach"},{"lat":51.592054068032,"lon":7.1242877841,"COVID-19 aktuell":0,"Klinikname":"Stiftungsklinikum Proselis Standort St. Elisabeth Hospital Herten"},{"lat":51.243214833464,"lon":6.8551166295220005,"COVID-19 aktuell":2,"Klinikname":"Sana Krankenhaus Gerresheim"},{"lat":48.122446592812004,"lon":11.488039076312,"COVID-19 aktuell":1,"Klinikname":"Klinik Augustinum"},{"lat":49.192660744076996,"lon":7.617323041050001,"COVID-19 aktuell":0,"Klinikname":"Städtisches Krankenhaus Pirmasens"},{"lat":53.119523164732,"lon":13.505943775308001,"COVID-19 aktuell":0,"Klinikname":"Sana Krankenhaus Templin"},{"lat":50.52503006833201,"lon":8.806200742656,"COVID-19 aktuell":0,"Klinikname":"Asklepios Klinik Lich"},{"lat":51.352860684367,"lon":6.648099660906,"COVID-19 aktuell":0,"Klinikname":"Malteser Krankenhaus St. Josefshospital Uerdingen, 47829 Krefeld, Kurfürstenstr. 69"},{"lat":50.820971422274,"lon":12.825703382623,"COVID-19 aktuell":0,"Klinikname":"DRK Krankenhaus Rabenstein"},{"lat":51.574740833218,"lon":8.112001597865,"COVID-19 aktuell":1,"Klinikname":"Marienkrankenhaus Soest, Widumgasse 5, 59494 Soest"},{"lat":51.460971097824,"lon":6.633981049044,"COVID-19 aktuell":1,"Klinikname":"Krankenhaus Bethanien für die Grafschaft Moers"},{"lat":51.300317890771,"lon":6.749400258032,"COVID-19 aktuell":0,"Klinikname":"Florence-Nightingale-Krankenhaus Kinderklinik"},{"lat":50.630089032293995,"lon":9.391265630657001,"COVID-19 aktuell":3,"Klinikname":"Krankenhaus Eichhof"},{"lat":53.77684236481301,"lon":12.571374526591999,"COVID-19 aktuell":0,"Klinikname":"DRK Krankenhaus Teterow"},{"lat":49.74472806966,"lon":9.005372303682,"COVID-19 aktuell":0,"Klinikname":"Asklepios Schloßbergklinik Bad König"},{"lat":48.175828972883,"lon":10.746090173769998,"COVID-19 aktuell":0,"Klinikname":"Wertachklinik Schwabmünchen"},{"lat":48.165004874192,"lon":11.505552292001,"COVID-19 aktuell":11,"Klinikname":"Klinikum Dritter Orden München"},{"lat":51.004766329728,"lon":9.737370371786,"COVID-19 aktuell":0,"Klinikname":"Herz-Kreislauf-Zentrum Klinikum Hersfeld-Rotenburg GmbH"},{"lat":51.56491295504001,"lon":14.373822927410002,"COVID-19 aktuell":0,"Klinikname":"Krankenhaus Spremberg"},{"lat":51.492185739949996,"lon":6.51632380479,"COVID-19 aktuell":1,"Klinikname":"St. Bernhard-Hospital Kamp-Lintfort GmbH"},{"lat":48.897418963392,"lon":8.67268520592,"COVID-19 aktuell":6,"Klinikname":"Siloah St. Trudpert Klinikum"},{"lat":51.493879487772,"lon":11.960052231898,"COVID-19 aktuell":0,"Klinikname":"Diakoniekrankenhaus Halle gGmbH"},{"lat":48.477463125122995,"lon":8.405019387599,"COVID-19 aktuell":1,"Klinikname":"Krankenhäuser Landkreis Freudenstadt"},{"lat":49.332652542007,"lon":11.01252150529,"COVID-19 aktuell":0,"Klinikname":"Diakoneo Klinik Schwabach"},{"lat":51.882819847991,"lon":10.216296814942,"COVID-19 aktuell":0,"Klinikname":"Asklepios Kliniken Schildautal Seesen"},{"lat":48.575521066275996,"lon":10.478583946824,"COVID-19 aktuell":3,"Klinikname":"Kreisklinik St. Elisabeth"},{"lat":48.065172915773,"lon":8.499393045886,"COVID-19 aktuell":0,"Klinikname":"Schwarzwald-Baar-Klinikum"},{"lat":51.744779878647,"lon":7.193693697436,"COVID-19 aktuell":0,"Klinikname":"St. Sixtus-Hospital"},{"lat":52.440261837018994,"lon":13.595804750903001,"COVID-19 aktuell":1,"Klinikname":"DRK Kliniken Berlin Köpenick"},{"lat":53.572063928995,"lon":7.788419902308,"COVID-19 aktuell":0,"Klinikname":"Krankenhaus Wittmund gGmbH"},{"lat":50.000546727589,"lon":6.892509050667,"COVID-19 aktuell":0,"Klinikname":"Verbundkrankenhaus Bernkastel/Wittlich"},{"lat":53.749384805502004,"lon":10.008263826403,"COVID-19 aktuell":0,"Klinikname":"Paracelsus Klinik Henstedt-Ulzburg"},{"lat":53.052767404681,"lon":14.275908780051001,"COVID-19 aktuell":2,"Klinikname":"Asklepios Klinikum Uckermark"},{"lat":51.795329141617,"lon":11.163533091594,"COVID-19 aktuell":0,"Klinikname":"Harzklinikum Dorothea Christiane Erxleben QUEDLINBURG"},{"lat":52.481244738319,"lon":13.317197799879,"COVID-19 aktuell":0,"Klinikname":"Sankt Gertrauden Krankhaus GmbH"},{"lat":53.55931382895,"lon":10.031658589865,"COVID-19 aktuell":6,"Klinikname":"Marienkrankenhaus Hamburg"},{"lat":48.889926102547996,"lon":11.19255137437,"COVID-19 aktuell":3,"Klinikname":"Klinik Eichstätt, Interdisziplinäre ITS"},{"lat":51.058086530837,"lon":13.77770733835,"COVID-19 aktuell":0,"Klinikname":"SANA Herzzentrum Dresden"},{"lat":54.07175069965,"lon":12.107268333401999,"COVID-19 aktuell":0,"Klinikname":"Klinikum Südstadt Rostock"},{"lat":50.302750436122,"lon":11.915282785917,"COVID-19 aktuell":1,"Klinikname":"Sana Klinikum Hof, Eppenreuther Str. 9, 95932 Hof"},{"lat":48.523488606062,"lon":12.14907485245,"COVID-19 aktuell":5,"Klinikname":"Krankenhaus-Landshut-Achdorf"},{"lat":47.671743941733,"lon":9.187581896831,"COVID-19 aktuell":5,"Klinikname":"Klinikum Konstanz - GLKN"},{"lat":50.947252843259,"lon":11.085595071299,"COVID-19 aktuell":1,"Klinikname":"Katholisches Krankenhaus St. Johann Nepomuk Erfurt"},{"lat":51.179913789671,"lon":14.014127432874,"COVID-19 aktuell":1,"Klinikname":"Lausitzer Seenland Klinikum GmbH"},{"lat":52.526881250383994,"lon":13.508368358016,"COVID-19 aktuell":0,"Klinikname":"Evangelisches Krankenhaus Königin Elisabeth Herzberge"},{"lat":53.560321551722005,"lon":10.016164755506999,"COVID-19 aktuell":4,"Klinikname":"Asklepios Klinik St. Georg, Hamburg"},{"lat":51.746566790074,"lon":11.972611034034,"COVID-19 aktuell":0,"Klinikname":"Helios Klinik Köthen"},{"lat":48.781751663568,"lon":9.163940906656,"COVID-19 aktuell":6,"Klinikname":"Diakonie-Klinikum Stuttgart"},{"lat":52.104112688488996,"lon":11.616078212853001,"COVID-19 aktuell":0,"Klinikname":"Pädiatrische Intensivstation Universitätskinderklinik Magdeburg "},{"lat":51.389826096284,"lon":7.00573603157,"COVID-19 aktuell":0,"Klinikname":"Kliniken Essen-Mitte Ev. Krankenhaus Werden"},{"lat":53.104505059312004,"lon":9.411837101179,"COVID-19 aktuell":2,"Klinikname":"Agaplesion Diakonieklinikum Rotenburg"},{"lat":51.191045128469,"lon":6.670398205511,"COVID-19 aktuell":0,"Klinikname":"Lukaskrankenhaus Neuss"},{"lat":51.134329159685,"lon":12.504938006368,"COVID-19 aktuell":0,"Klinikname":"Sana Kliniken Leipziger Land"},{"lat":52.301202545139,"lon":14.483436226828001,"COVID-19 aktuell":0,"Klinikname":"Klinikum Frankfurt Oder GmbH"},{"lat":52.63551440783301,"lon":9.223802768811,"COVID-19 aktuell":1,"Klinikname":"Helios-Kliniken Mittelweser"},{"lat":51.193821231331995,"lon":11.956809282237,"COVID-19 aktuell":1,"Klinikname":"Asklepios Klinik Weißenfels"},{"lat":54.482390849554996,"lon":9.051059603707,"COVID-19 aktuell":0,"Klinikname":"Klinikum Nordfriesland, Klinik Husum"},{"lat":49.794488943104,"lon":9.952984034999,"COVID-19 aktuell":1,"Klinikname":"Klinikum Würzburg Mitte Standort Missioklinik, Salvatorstrasse 7, 97074 Würzburg"},{"lat":50.094192075512,"lon":8.756854444764,"COVID-19 aktuell":6,"Klinikname":"SANA Klinikum Offenbach"},{"lat":51.058086530837,"lon":13.77770733835,"COVID-19 aktuell":0,"Klinikname":"Herzzentrum Dresden Klinik für Herzchirurgie"},{"lat":50.45252519932,"lon":7.784991019771,"COVID-19 aktuell":0,"Klinikname":"Herz-Jesu-Krankenhaus Dernbach"},{"lat":50.712826227597,"lon":7.131837129527,"COVID-19 aktuell":0,"Klinikname":"Johanniter Krankenhaus Bonn"},{"lat":51.15261062478599,"lon":6.870933508035001,"COVID-19 aktuell":1,"Klinikname":"Sana Krankenhaus Benrath"},{"lat":52.141413124726,"lon":14.627082681308998,"COVID-19 aktuell":0,"Klinikname":"Städtisches Krankenhaus Eisenhüttenstadt GmbH"},{"lat":48.819912672540006,"lon":9.787352800304001,"COVID-19 aktuell":3,"Klinikname":"Stauferklinikum Schwäbisch Gmünd"},{"lat":51.231458183678996,"lon":6.727645182727,"COVID-19 aktuell":0,"Klinikname":"Schön Klinik Düsseldorf"},{"lat":52.51403363081899,"lon":13.494809389049001,"COVID-19 aktuell":3,"Klinikname":"Sana Klinikum Lichtenberg"},{"lat":52.600538808641005,"lon":12.875710487497,"COVID-19 aktuell":1,"Klinikname":"Havelland-Kliniken Standort Nauen"},{"lat":52.53491889392,"lon":13.369843125311,"COVID-19 aktuell":0,"Klinikname":"Bundeswehrkrankenhaus Berlin"},{"lat":51.123693142487,"lon":13.930238020471,"COVID-19 aktuell":1,"Klinikname":"Asklepios-ASB Klinik Radeberg"},{"lat":50.305147190391,"lon":7.608741563331,"COVID-19 aktuell":0,"Klinikname":"St. Elisabeth Krankenhaus Lahnstein - Ihr Gesundheitszentrum - GmbH"},{"lat":53.571185658973,"lon":9.965228157898,"COVID-19 aktuell":1,"Klinikname":"Agaplesion Diakonieklinikum Hamburg"},{"lat":50.822419271205995,"lon":6.466680407557,"COVID-19 aktuell":3,"Klinikname":"SMH Hospital Düren gGmbH"},{"lat":51.251205269879996,"lon":6.382835626537,"COVID-19 aktuell":3,"Klinikname":"Allgemeines Krankenhaus Viersen"},{"lat":52.481244738319,"lon":13.317197799879,"COVID-19 aktuell":2,"Klinikname":"Sankt Gertrauden Krankenhaus GmbH"},{"lat":50.775112638873,"lon":7.181260156458,"COVID-19 aktuell":0,"Klinikname":"Asklepios Klinik Kinderklinik Sankt Augustin"},{"lat":49.378075351197005,"lon":8.570155084117,"COVID-19 aktuell":1,"Klinikname":"GRN-Klinik Schwetzingen"},{"lat":52.438175472559,"lon":13.458396685181999,"COVID-19 aktuell":9,"Klinikname":"Vivantes Klinikum Neukölln"},{"lat":52.277394337352,"lon":8.00327610963,"COVID-19 aktuell":4,"Klinikname":"Klinikum Osnabrück"},{"lat":50.682166967009,"lon":7.128063797918,"COVID-19 aktuell":0,"Klinikname":"Johanniter Gmbh - Waldkrankenhaus Bonn"},{"lat":49.412839747136005,"lon":11.149226188136,"COVID-19 aktuell":4,"Klinikname":"Klinikum Nürnberg Süd"},{"lat":48.972140735067995,"lon":8.409467697029001,"COVID-19 aktuell":2,"Klinikname":"ViDia Diakonissenkrankenhaus"},{"lat":52.606971189853,"lon":12.347828913457,"COVID-19 aktuell":0,"Klinikname":"Havelland Kliniken Standort Rathenow"},{"lat":51.652308893282004,"lon":7.344830811007,"COVID-19 aktuell":1,"Klinikname":"Vincenz-Krankenhaus Datteln"},{"lat":52.107513388766,"lon":9.352171897954,"COVID-19 aktuell":4,"Klinikname":"Sana-Klinikum Hameln"},{"lat":52.631861499326,"lon":13.505310807377,"COVID-19 aktuell":0,"Klinikname":"Evangelische Lungenklinik Berlin"},{"lat":51.089995839126,"lon":13.70900201804,"COVID-19 aktuell":0,"Klinikname":"Städtisches Klinikum Dresden- Standort Neustadt"},{"lat":48.999016124676,"lon":12.399249851687,"COVID-19 aktuell":1,"Klinikname":"Kreisklinik Wörth an der Donau"},{"lat":49.00701517939999,"lon":12.118438124689,"COVID-19 aktuell":1,"Klinikname":"Caritas Krankenhaus St. Josef"},{"lat":49.602610133012,"lon":6.537867307597,"COVID-19 aktuell":0,"Klinikname":"Kreiskrankenhaus Saarburg GmbH"},{"lat":47.757119081793,"lon":11.55101943602,"COVID-19 aktuell":2,"Klinikname":"Asklepios Stadtklinik Bad Tölz"},{"lat":51.766903288376,"lon":7.885046347972,"COVID-19 aktuell":0,"Klinikname":"St. Franziskus Hospital Ahlen"},{"lat":49.50879304057901,"lon":6.7400113642270005,"COVID-19 aktuell":0,"Klinikname":"Marienhausklinik St. Josef Losheim am See"},{"lat":50.540898885544,"lon":7.127738043662,"COVID-19 aktuell":2,"Klinikname":"Krankenhaus Maria Hilf MAW"},{"lat":53.013137300723,"lon":13.989123344618001,"COVID-19 aktuell":0,"Klinikname":"Krankenhaus Angermünde"},{"lat":51.095021846438996,"lon":13.997342705743,"COVID-19 aktuell":0,"Klinikname":"Sächsisches Krankenhaus Arnsdorf"},{"lat":51.250740236167005,"lon":6.970764040980001,"COVID-19 aktuell":1,"Klinikname":"EVK Mettmann"},{"lat":54.101674427486,"lon":12.131370663610001,"COVID-19 aktuell":0,"Klinikname":"Universitätsmedizin Rostock - Teilkörperschaft der Universität Rostock"},{"lat":51.528862559831,"lon":7.225762188418,"COVID-19 aktuell":0,"Klinikname":"Universitätsklinikum Marien Hospital Herne"},{"lat":50.428970325021,"lon":7.397550433866,"COVID-19 aktuell":0,"Klinikname":"Rhein-Mosel-Fachklinik Andernach"},{"lat":49.326093965328,"lon":10.54033242166,"COVID-19 aktuell":4,"Klinikname":"Diakoneo Rangauklinik Ansbach GmbH"},{"lat":50.885268754734,"lon":11.621468782358999,"COVID-19 aktuell":2,"Klinikname":"Universitätsklinikum Jena"},{"lat":49.651827831428,"lon":9.000306844646,"COVID-19 aktuell":6,"Klinikname":"Gesundheitszentrum Odenwaldkreis GmbH"},{"lat":52.6914777339,"lon":13.298514604503,"COVID-19 aktuell":0,"Klinikname":"Asklepios Klinik Birkenwerder"},{"lat":49.760650665997,"lon":9.497476019897,"COVID-19 aktuell":0,"Klinikname":"Rotkreuzklinik Wertheim"},{"lat":48.565653126867,"lon":10.679133653574999,"COVID-19 aktuell":1,"Klinikname":"Kreisklink Wertingen"},{"lat":49.308912016795,"lon":7.3457320332360005,"COVID-19 aktuell":0,"Klinikname":"Klinik für Neurologie am Universitätsklinikum des Saarlandes, Homburg/Saar"},{"lat":47.563579550914,"lon":9.683587414102,"COVID-19 aktuell":2,"Klinikname":"Asklepios Klinik Lindau"},{"lat":48.408743363767,"lon":9.789927720958,"COVID-19 aktuell":0,"Klinikname":"Alb-Donau-Klinikum Blaubeuren"},{"lat":53.835847270403995,"lon":10.708594903235001,"COVID-19 aktuell":3,"Klinikname":"Universitätsklinikum Schleswig-Holstein Campus Lübeck"},{"lat":49.225634567712,"lon":12.659462213450999,"COVID-19 aktuell":3,"Klinikname":"Sana Kliniken des Landkreises Cham"},{"lat":48.132668345376,"lon":11.56221556666,"COVID-19 aktuell":0,"Klinikname":"Universität München Campus Innenstadt"},{"lat":53.554266187226,"lon":9.901287245266,"COVID-19 aktuell":0,"Klinikname":"Asklepios Klinik Altona"},{"lat":52.359367509688,"lon":9.72413259743,"COVID-19 aktuell":2,"Klinikname":"KRH Siloah Hannover"},{"lat":54.52306787691,"lon":9.569834232461,"COVID-19 aktuell":0,"Klinikname":"Helios Klinikum Schleswig"},{"lat":53.324051347266,"lon":8.482316493464,"COVID-19 aktuell":1,"Klinikname":"St. Bernhard-Hospital Brake"},{"lat":52.104112688488996,"lon":11.616078212853001,"COVID-19 aktuell":0,"Klinikname":"Universität Magdeburg, Klinik für Kardiologie und Angiologie"},{"lat":48.280372716349,"lon":9.718173265392,"COVID-19 aktuell":2,"Klinikname":"Alb Donau Klinikum- Standort Ehingen"},{"lat":51.74397854379001,"lon":14.318937836531001,"COVID-19 aktuell":0,"Klinikname":"Sana-Herzzentrum Cottbus GmbH"},{"lat":51.260170938981,"lon":7.143887758239,"COVID-19 aktuell":1,"Klinikname":"Klinikverbund St. Antonius und St. Josef GmbH"},{"lat":52.303641604439,"lon":13.626816738433002,"COVID-19 aktuell":1,"Klinikname":"Klinikum Dahme Spreewald GmbH, Achenbach Krankenhaus"},{"lat":52.47864928953901,"lon":13.372827565454,"COVID-19 aktuell":2,"Klinikname":"St. Joseph Krankenhaus"},{"lat":50.323552817426005,"lon":10.235710926354,"COVID-19 aktuell":2,"Klinikname":"Rhön Klinikum Campus Bad Neustadt"},{"lat":52.4138414325,"lon":12.545166850123,"COVID-19 aktuell":0,"Klinikname":"Städtisches Klinikum Brandenburg GmbH Hochschulklinikum der MHB"},{"lat":51.161622284322995,"lon":7.188714981112,"COVID-19 aktuell":1,"Klinikname":"Sana Klinikum Remscheid"},{"lat":51.478082474591,"lon":11.969155919251001,"COVID-19 aktuell":5,"Klinikname":"St. Elisabeth & St. Barbara Krankenhaus"},{"lat":53.470879874845,"lon":9.93764555451,"COVID-19 aktuell":0,"Klinikname":"Asklepios Klinikum Hamburg-Harburg"},{"lat":50.985778797605,"lon":7.378701209891,"COVID-19 aktuell":3,"Klinikname":"St. Josef-Krankenhaus Engelskirchen"},{"lat":52.503591063132,"lon":13.364198362742,"COVID-19 aktuell":0,"Klinikname":"EvangelischeElisabeth Klinik Berlin"},{"lat":54.06591447496199,"lon":9.992158770528,"COVID-19 aktuell":2,"Klinikname":"Friedrich-Ebert-Krankenhaus Neumünster"},{"lat":52.542234057016,"lon":13.347827553716,"COVID-19 aktuell":0,"Klinikname":"Charité, Chirurgische Klinik, Campus Virchow-Klinikum"},{"lat":48.413349264103005,"lon":12.760907650027,"COVID-19 aktuell":11,"Klinikname":"Rottal-Inn Kliniken KU - Eggenfelden"},{"lat":51.660077377416,"lon":6.654883503979,"COVID-19 aktuell":1,"Klinikname":"Ev. Krankenhaus Wesel"},{"lat":51.503530312452,"lon":11.877161622014999,"COVID-19 aktuell":1,"Klinikname":"Krankenhaus Martha-Maria Halle-Dölau"},{"lat":52.810865208217,"lon":13.038772702184,"COVID-19 aktuell":0,"Klinikname":"SANA Kliniken Sommerfeld"},{"lat":49.84654639954,"lon":7.861477375063,"COVID-19 aktuell":2,"Klinikname":"St. Marienwörth Bad Kreuznach"},{"lat":54.238802838404,"lon":10.276860790327,"COVID-19 aktuell":3,"Klinikname":"Klinik Preetz"},{"lat":48.384278099312,"lon":10.838583201161999,"COVID-19 aktuell":16,"Klinikname":"Universitätsklinikum Augsburg"},{"lat":51.460257513815,"lon":11.984916687142999,"COVID-19 aktuell":0,"Klinikname":"BG Klinikum Bergmannstrost Halle"},{"lat":53.752510201933,"lon":9.681757450234999,"COVID-19 aktuell":6,"Klinikname":"Regio Kliniken Kreis Pinneberg Standort Elmshorn"},{"lat":51.536822691397,"lon":7.685192272083,"COVID-19 aktuell":3,"Klinikname":"Katharinen-Hospital Unna"},{"lat":51.78536599817,"lon":9.365723597871,"COVID-19 aktuell":2,"Klinikname":"St. Ansgar Krankenhaus Höxter (Klinikverbund KHWE)"},{"lat":53.58246155793199,"lon":9.77698874467,"COVID-19 aktuell":2,"Klinikname":"Asklepios Westklinikum, Hamburg Rissen"},{"lat":53.429704447332,"lon":11.854413338006001,"COVID-19 aktuell":1,"Klinikname":"Asklepios Klinik Parchim"},{"lat":50.473859853852,"lon":12.708371628541999,"COVID-19 aktuell":1,"Klinikname":"Kliniken Erlabrunn gGmbH"},{"lat":52.827784585009006,"lon":13.790811538893001,"COVID-19 aktuell":0,"Klinikname":"Klinikum Barnim GmbH, Werner Forßmann Krankenhaus Eberswalde"},{"lat":51.383359115198004,"lon":12.380169153148,"COVID-19 aktuell":0,"Klinikname":"Klinikum St. Georg Leipzig gGmbH"},{"lat":51.487498909503,"lon":9.140362143516999,"COVID-19 aktuell":0,"Klinikname":"Heliosklinikum Warburg"},{"lat":50.971663609429996,"lon":12.439656257629002,"COVID-19 aktuell":1,"Klinikname":"Klinikum Altenburger Land"},{"lat":51.534453885173996,"lon":7.230587482518,"COVID-19 aktuell":1,"Klinikname":"Evangelische Krankenhaus (EvK) Herne-Mitte"},{"lat":52.554889150784,"lon":13.451850056681002,"COVID-19 aktuell":0,"Klinikname":"Park-Klinik Weissensee"},{"lat":53.541900008233,"lon":12.687936008042,"COVID-19 aktuell":0,"Klinikname":"Klinik Amsee GmbH"},{"lat":52.444185357117995,"lon":13.240225366317,"COVID-19 aktuell":0,"Klinikname":"Krankenhaus Waldfriede"},{"lat":51.655656995976,"lon":6.611606061442,"COVID-19 aktuell":3,"Klinikname":"Marienhospital Wesel"},{"lat":49.205934285286,"lon":8.103765808046,"COVID-19 aktuell":2,"Klinikname":"Klinikum Landau-Südliche Weinstraße GmbH, Standort Landau"},{"lat":49.628413580172,"lon":8.62520313276,"COVID-19 aktuell":0,"Klinikname":"Kreiskrankenhaus Bergstraße "},{"lat":48.126669312158,"lon":11.549293111275,"COVID-19 aktuell":0,"Klinikname":"Maria-Theresia-Klinik"},{"lat":51.308331669107,"lon":12.436151683314,"COVID-19 aktuell":0,"Klinikname":"Helios Park-Klinikum Leipzig"},{"lat":51.331383154482005,"lon":12.386209113038001,"COVID-19 aktuell":0,"Klinikname":"Universitätsklinikum Leipzig, Kinderklinik"},{"lat":48.5646449268,"lon":13.445413827830999,"COVID-19 aktuell":6,"Klinikname":"Klinikum Passau, Klinik für Anästhesiologie und operative Intensivmedizin"},{"lat":54.091061997458,"lon":10.828683596891999,"COVID-19 aktuell":0,"Klinikname":"Schön Klinik Neustadt"},{"lat":48.73078445831101,"lon":11.176768183741,"COVID-19 aktuell":0,"Klinikname":"KJF Klinik St. Elisabeth"},{"lat":52.521027497434,"lon":8.194305516968,"COVID-19 aktuell":0,"Klinikname":"Kardinal v. Galen Klinik, St. Elisabeth Damme"},{"lat":50.043851391755,"lon":10.225560843928,"COVID-19 aktuell":4,"Klinikname":"Krankenhaus St. Josef Schweinfurt"},{"lat":51.213421488723,"lon":7.886490616947,"COVID-19 aktuell":0,"Klinikname":"radprax Krankenhaus Plettenberg"},{"lat":52.664677896575,"lon":8.241091489726,"COVID-19 aktuell":0,"Klinikname":"St. Franziskus-Hospital Lohne"},{"lat":49.086095403462,"lon":8.200444757922,"COVID-19 aktuell":3,"Klinikname":"Asklepios Südpfalzklinik Kandel"},{"lat":52.39920968442,"lon":13.044046998057,"COVID-19 aktuell":0,"Klinikname":"St. Josefs-Krankenhaus Potsdam-Sanssouci"},{"lat":48.803529450519,"lon":9.212520298368,"COVID-19 aktuell":0,"Klinikname":"Krankenhaus vom Roten Kreuz Bad Cannstatt GmbH"},{"lat":51.944170635812995,"lon":13.875671267542,"COVID-19 aktuell":0,"Klinikname":"Klinikum Dahme Spreewald GmbH, Spreewaldklinik Lübben"},{"lat":49.971704025861996,"lon":6.5269861217709995,"COVID-19 aktuell":2,"Klinikname":"Marienhausklinikum Eifel, Standort Bitburg"},{"lat":53.240545120251,"lon":10.395935296947,"COVID-19 aktuell":0,"Klinikname":"Städt. Klinikum Lüneburg gGmbH"},{"lat":51.554867818936,"lon":9.943659067285001,"COVID-19 aktuell":0,"Klinikname":"Ev. Krankenhaus Göttingen Weende"},{"lat":53.902698241062005,"lon":13.041572767388,"COVID-19 aktuell":0,"Klinikname":"KKH Demmin"},{"lat":50.868588042918994,"lon":12.052145719463,"COVID-19 aktuell":0,"Klinikname":"SRH Waldklinikum Gera"},{"lat":51.551900877761,"lon":7.906319081767,"COVID-19 aktuell":1,"Klinikname":"Mariannen-Hospital Werl"},{"lat":51.662106222311,"lon":7.123744368537,"COVID-19 aktuell":3,"Klinikname":"Paracelsus-Klinik Marl"},{"lat":50.023588586532,"lon":7.16760706895,"COVID-19 aktuell":0,"Klinikname":"Klinikum Mittelmosel Zell"},{"lat":52.463038638404,"lon":13.345513236582,"COVID-19 aktuell":2,"Klinikname":"Vivantes Auguste-Viktoria-Klinikum (AVK)"},{"lat":52.624685022797,"lon":13.295363545385001,"COVID-19 aktuell":1,"Klinikname":"Caritas-Klinik Dominikus Berlin-Reinickendorf"},{"lat":51.620319720706995,"lon":7.175755083545001,"COVID-19 aktuell":1,"Klinikname":"Knappschaftskrankenhaus Recklinghausen"},{"lat":50.051936208683,"lon":10.243571877463,"COVID-19 aktuell":5,"Klinikname":"Leopoldina Krankenhaus Schweinfurt"},{"lat":52.524480767484995,"lon":13.438961398661,"COVID-19 aktuell":3,"Klinikname":"Vivantes Klinikum im Friedrichshain (KFH)"},{"lat":52.550156762079,"lon":13.206896755114,"COVID-19 aktuell":0,"Klinikname":"Vivantes Klinikum Spandau (KSP)"},{"lat":48.457438951419,"lon":10.293619376153,"COVID-19 aktuell":1,"Klinikname":"Kreiskliniken Günzburg-Krumbach, Klinik Günzburg"},{"lat":50.982949872332,"lon":14.266479420685,"COVID-19 aktuell":0,"Klinikname":"Sächsische Schweiz Klinik Sebnitz"},{"lat":48.904304210237,"lon":8.502052187887,"COVID-19 aktuell":2,"Klinikname":"SRH Klinikum Karlsbad-Langensteinbach GmbH"},{"lat":53.074801173802,"lon":11.873124360973,"COVID-19 aktuell":0,"Klinikname":"Kreiskrankenhaus Prignitz"},{"lat":53.489375976100995,"lon":13.984293651738,"COVID-19 aktuell":0,"Klinikname":"Asklepios Klinik Pasewalk"},{"lat":53.674729747362,"lon":10.029191494004001,"COVID-19 aktuell":0,"Klinikname":"Asklepios Klinik Nord"},{"lat":50.74193616942,"lon":12.366416394742998,"COVID-19 aktuell":4,"Klinikname":"Pleissentalklinik Werdau"},{"lat":51.046812185075,"lon":14.290974318965,"COVID-19 aktuell":0,"Klinikname":"Asklepios Orthopädische Klinik Hohwald"},{"lat":51.274474451085,"lon":12.941995382244,"COVID-19 aktuell":0,"Klinikname":"Fachkrankenhaus Hubertusburg gGmbH"},{"lat":50.879455893095,"lon":8.030419528468,"COVID-19 aktuell":0,"Klinikname":"St. Marien-Krankenhaus Siegen GmbH"},{"lat":50.356723578628,"lon":8.729891359789999,"COVID-19 aktuell":1,"Klinikname":"Hochwaldkrankenhaus Bad Nauheim"},{"lat":49.01692335715,"lon":12.064848124965,"COVID-19 aktuell":5,"Klinikname":"Krankenhaus Barmherzige Brüder Regensburg"},{"lat":50.882904775937995,"lon":12.792461693271001,"COVID-19 aktuell":0,"Klinikname":"Diakomed - Diakoniekrankenhaus Chemnitzer Land gGmbH"},{"lat":51.684975604102,"lon":8.343058414757,"COVID-19 aktuell":0,"Klinikname":"Evangelisches Krankenhaus Lippstadt gGmbH"},{"lat":51.366282965409,"lon":11.994037270579,"COVID-19 aktuell":3,"Klinikname":"Carl-von-Basedow-Klinikum"},{"lat":52.948243551441,"lon":12.388838052684,"COVID-19 aktuell":0,"Klinikname":"KMG Klinikum Kyritz"},{"lat":51.30760564054,"lon":12.436903238231,"COVID-19 aktuell":4,"Klinikname":"Herzzentrum Leipzig"},{"lat":51.29173410058699,"lon":13.114279031688001,"COVID-19 aktuell":0,"Klinikname":"COLLM KLINIK OSCHATZ"},{"lat":52.631861499326,"lon":13.505310807377,"COVID-19 aktuell":0,"Klinikname":"Evangelische Lungenklinik Berlin"},{"lat":51.519954398832,"lon":7.533110618624001,"COVID-19 aktuell":0,"Klinikname":"Klinikum Westfalen - Knappschaftskrankenhaus Dortmund"},{"lat":52.086288647157005,"lon":11.638070583376,"COVID-19 aktuell":0,"Klinikname":"MEDIAN Klinik NRZ Magdeburg"},{"lat":52.401382990772,"lon":13.065048694643,"COVID-19 aktuell":9,"Klinikname":"Klinikum Ernst von Bergmann Potsdam"},{"lat":51.117245594667,"lon":9.114189147622,"COVID-19 aktuell":0,"Klinikname":"Asklepios Stadtklinik Bad Wildungen"},{"lat":53.884770901332,"lon":11.438175201547,"COVID-19 aktuell":1,"Klinikname":"Sana HANSE-Klinikum Wismar GmbH"},{"lat":53.551159545356,"lon":9.913026809845,"COVID-19 aktuell":0,"Klinikname":"Altonaer Kinderkrankenhaus"},{"lat":50.992215873468,"lon":6.923839330698001,"COVID-19 aktuell":3,"Klinikname":"Heilig Geist-Krankenhaus"},{"lat":49.219963982877,"lon":8.365733206256,"COVID-19 aktuell":0,"Klinikname":"Asklepios Südpfalzklinik Germersheim"},{"lat":48.647647546769,"lon":9.204562492669,"COVID-19 aktuell":1,"Klinikname":"Filderklinik"},{"lat":49.233049841787995,"lon":7.003756561317,"COVID-19 aktuell":0,"Klinikname":"Evangelisches Stadtkrankenhaus Saarbrücken"},{"lat":51.908610285858,"lon":7.634223461282001,"COVID-19 aktuell":2,"Klinikname":"Herz Jesu Krankenhaus Münster-Hiltrup"},{"lat":48.48374334352899,"lon":9.218193680039999,"COVID-19 aktuell":10,"Klinikname":"Klinikum am Steinenberg"},{"lat":51.652448679853,"lon":7.083754777941,"COVID-19 aktuell":0,"Klinikname":"Marien-Hospital"},{"lat":53.334064923663995,"lon":13.86869430542,"COVID-19 aktuell":0,"Klinikname":"Kreiskrankenhaus Prenzlau"},{"lat":48.130358133326,"lon":11.554821252757002,"COVID-19 aktuell":0,"Klinikname":"Kinderklinik und Kinderpoliklinik im Dr. von Haunerschen Kinderspital der LMU München"},{"lat":50.072435808281,"lon":8.226556599116,"COVID-19 aktuell":0,"Klinikname":"Asklepios Paulinen Klinik Wiesbaden"},{"lat":52.518886203069,"lon":13.277061760409,"COVID-19 aktuell":4,"Klinikname":"Drk Kliniken Berlin Westend"},{"lat":49.64978561206701,"lon":8.320514273473,"COVID-19 aktuell":2,"Klinikname":"Klinikum Worms"},{"lat":51.741993251764,"lon":9.01045219277,"COVID-19 aktuell":0,"Klinikname":"St. Josef Hospital Med. Klinik I (Kardiologie-Intensivmedizin)"},{"lat":52.151614552443,"lon":9.975515127117,"COVID-19 aktuell":0,"Klinikname":"Helios Klinikum Hildesheim internistische Intensiv"},{"lat":51.144222574099,"lon":14.939101695818,"COVID-19 aktuell":0,"Klinikname":"Malteser Krankenhaus St. Carolus"},{"lat":50.247062538779,"lon":10.972732543978,"COVID-19 aktuell":4,"Klinikname":"REGIOMED Klinikum Coburg"},{"lat":51.996042224610996,"lon":11.716983318493,"COVID-19 aktuell":1,"Klinikname":"AMEOS Klinikum Schönebeck"},{"lat":52.041682889224994,"lon":8.541192054781,"COVID-19 aktuell":0,"Klinikname":"Evangelisches Klinikum Bethel, Johannesstift"},{"lat":53.605628446777,"lon":9.990679800494,"COVID-19 aktuell":1,"Klinikname":"Israelitisches Krankenhaus"},{"lat":51.242299980493,"lon":6.790982075036,"COVID-19 aktuell":1,"Klinikname":"St. Vinzenz-Krankenhaus"},{"lat":50.81526897788,"lon":8.805859994881999,"COVID-19 aktuell":1,"Klinikname":"Universitätsklinikum Marburg UKGM"},{"lat":48.690485873164995,"lon":9.65062236799,"COVID-19 aktuell":5,"Klinikname":"ALB FILS KLINIKEN, Standort: Klinik am Eichert"},{"lat":53.941746464684,"lon":9.503403425151,"COVID-19 aktuell":3,"Klinikname":"Klinikum Itzehoe"},{"lat":52.441800385762996,"lon":13.320401430065,"COVID-19 aktuell":0,"Klinikname":"Charité Universitätsmedizin Medizinische Klinik für Kardiologie CBF"},{"lat":49.461630993553,"lon":12.412333828229,"COVID-19 aktuell":0,"Klinikname":"Asklepios Klinik Oberviechtach"},{"lat":53.52230308637299,"lon":12.685997843382001,"COVID-19 aktuell":0,"Klinikname":"MEDICLIN Müritz-Klinikum"},{"lat":49.153217008564994,"lon":9.19058221577,"COVID-19 aktuell":13,"Klinikname":"SLK-Klinikum am Gesundbrunnen Heilbronn"},{"lat":51.877967995862,"lon":12.477286577159,"COVID-19 aktuell":0,"Klinikname":"MediClin Herzzentrum Coswig"},{"lat":47.732855621457006,"lon":10.302372336273,"COVID-19 aktuell":1,"Klinikname":"Klinikverbund Allgäu - Klinikum Kempten"},{"lat":53.674729747362,"lon":10.029191494004001,"COVID-19 aktuell":0,"Klinikname":"AK Nord, Hamburg, Pädiatrische Intensivstation"},{"lat":49.490775510161,"lon":9.763119578329,"COVID-19 aktuell":7,"Klinikname":"Caritaskrankenhaus Bad Mergentheim"},{"lat":52.542234057016,"lon":13.347827553716,"COVID-19 aktuell":0,"Klinikname":"Charité CVK Kinderklinik (OHC) - interdisziplinäre Kinderintensivstation"},{"lat":52.628857876836,"lon":10.085253920406,"COVID-19 aktuell":0,"Klinikname":"Allgemeines Krankenhaus Celle"},{"lat":47.924434205718,"lon":9.76083535591,"COVID-19 aktuell":0,"Klinikname":"Oberschwabenklinik Bad Waldsee"},{"lat":52.589849052234,"lon":13.308975112432,"COVID-19 aktuell":4,"Klinikname":"Vivantes Humboldt-Klinikum"},{"lat":48.815082316815,"lon":9.186542808993,"COVID-19 aktuell":12,"Klinikname":"Robert-Bosch Krankenhaus"},{"lat":48.741633665497,"lon":9.254379630056,"COVID-19 aktuell":7,"Klinikname":"medius KLINIK OSTFILDERN-RUIT"},{"lat":50.72244155484999,"lon":12.471148610148001,"COVID-19 aktuell":2,"Klinikname":"Paracelsus-Klinik Zwickau"},{"lat":48.652068749627,"lon":9.442178785785,"COVID-19 aktuell":13,"Klinikname":"medius KLINIKEN KIRCHHEIM|NÜRTINGEN"},{"lat":51.350371418841,"lon":7.01174873112,"COVID-19 aktuell":5,"Klinikname":"Helios Klinikum Niederberg"},{"lat":49.58202623012,"lon":10.621789151237,"COVID-19 aktuell":1,"Klinikname":"Klinik Neustadt a. d. Aisch"},{"lat":52.013456454331,"lon":8.525701117214,"COVID-19 aktuell":1,"Klinikname":"Evangelisches Klinikum Bethel, Bethel"},{"lat":51.319885882105,"lon":6.565841674346,"COVID-19 aktuell":4,"Klinikname":"Helios Klinikum Krefeld"},{"lat":51.657104657625,"lon":6.956027984652,"COVID-19 aktuell":0,"Klinikname":"St.- Elisabeth Krankenhaus Dorsten"},{"lat":52.442743762618,"lon":7.065397202969001,"COVID-19 aktuell":5,"Klinikname":"Euregio-Klinik Albert-Schweitzer-Straße"},{"lat":51.832762637954,"lon":6.2401576638059995,"COVID-19 aktuell":0,"Klinikname":"St. Willibrord-Spital Emmerich-Rees"},{"lat":49.753427539044,"lon":8.638485431802,"COVID-19 aktuell":3,"Klinikname":"Kreiskliniken Darmstadt-Dieburg Standort Jugenheim"},{"lat":51.137942585009,"lon":7.01258504394,"COVID-19 aktuell":4,"Klinikname":"Bethanien Krankenhaus Solingen "},{"lat":47.692956868907004,"lon":9.844494031402,"COVID-19 aktuell":4,"Klinikname":"OSK Westallgäuklinikum Wangen"},{"lat":50.041686138227995,"lon":8.964987516338,"COVID-19 aktuell":5,"Klinikname":"Asklepios Klinik Seligenstadt"},{"lat":49.743730898713,"lon":10.139102518542,"COVID-19 aktuell":1,"Klinikname":"Klinik Kitzinger Land"},{"lat":51.379446846857995,"lon":7.690690398249,"COVID-19 aktuell":1,"Klinikname":"St. Elisabeth Hospital Iserlohn"},{"lat":52.01434512392299,"lon":8.544199347480001,"COVID-19 aktuell":4,"Klinikname":"Klinikum Bielefeld gGmbH"},{"lat":51.113210128766,"lon":7.38522863393,"COVID-19 aktuell":0,"Klinikname":"Helios Klinik Wipperfürth"},{"lat":48.909688323637,"lon":12.697077512676001,"COVID-19 aktuell":1,"Klinikname":"Kreisklinik Bogen"},{"lat":50.859854352109004,"lon":11.339337408526001,"COVID-19 aktuell":0,"Klinikname":"Helios Klinik Blankenhain"},{"lat":51.158093140952,"lon":6.420085608942999,"COVID-19 aktuell":3,"Klinikname":"Städtische Kliniken Mönchengladbach"},{"lat":50.592300146582005,"lon":8.649139004592,"COVID-19 aktuell":0,"Klinikname":"AGAPLESION Ev. Krankenhaus Mittelhessen"},{"lat":54.132942256723005,"lon":10.601059377177,"COVID-19 aktuell":0,"Klinikname":"Sana Kliniken Ostholstein GmbH - Klinik Eutin"},{"lat":50.910195081295996,"lon":6.966396331754,"COVID-19 aktuell":6,"Klinikname":"Antonius Krankenhaus Köln"},{"lat":50.095428562176,"lon":8.661681175363,"COVID-19 aktuell":17,"Klinikname":"Universitätsklinikum Frankfurt am Main"},{"lat":49.87747190423801,"lon":8.66481560467,"COVID-19 aktuell":0,"Klinikname":"Darmstädter Kinderkliniken Prinzessin Margaret"},{"lat":51.309347754467,"lon":6.2714890670029995,"COVID-19 aktuell":0,"Klinikname":"Städtsiches Krankenhaus Nettetal GmbH"},{"lat":53.641470602664,"lon":10.151569090972,"COVID-19 aktuell":1,"Klinikname":"Evang. Amalie Sieveking Krankenhaus"},{"lat":52.542234057016,"lon":13.347827553716,"COVID-19 aktuell":0,"Klinikname":"Charité, Campus Virchow-Klinikum , Chirurgische Klinik, ITS 21i Schwerpunkt Transplantation"},{"lat":50.735086900659,"lon":13.078994035786,"COVID-19 aktuell":0,"Klinikname":"Klinikum Mittleres Erzgebirge"},{"lat":51.752705853631,"lon":8.038717746604,"COVID-19 aktuell":0,"Klinikname":"St. Elisabeth-Hospital Beckum"},{"lat":50.683290326913,"lon":7.630609452749,"COVID-19 aktuell":0,"Klinikname":"DRK Krankenhaus Altenkirchen"},{"lat":54.199694819113,"lon":9.080427056679,"COVID-19 aktuell":3,"Klinikname":"Westküstenklinikum Heide"},{"lat":50.72295103401301,"lon":12.434322523832,"COVID-19 aktuell":1,"Klinikname":"Heinrich-Braun-Klinikum Zwickau gGmbH, Intensivbereiche"},{"lat":50.922115738919004,"lon":9.25571751588,"COVID-19 aktuell":0,"Klinikname":"Asklepios Klinikum Schwalmstadt"},{"lat":50.808026333869,"lon":6.496521625668,"COVID-19 aktuell":3,"Klinikname":"Krankenhaus Düren gGmbH"},{"lat":48.701290667182995,"lon":9.644454896433999,"COVID-19 aktuell":0,"Klinikname":"Klinikum Christophsbad Göppingen"},{"lat":52.232069153103,"lon":10.999751186236999,"COVID-19 aktuell":0,"Klinikname":"Helios St. Marienberg Klinik Helmstedt"},{"lat":50.925637543601,"lon":6.363383710368001,"COVID-19 aktuell":2,"Klinikname":"St. Elisabeth Krankenhaus Jülich"},{"lat":51.137185253333996,"lon":9.539943695077,"COVID-19 aktuell":0,"Klinikname":"Asklepiosklinik Melsungen"},{"lat":48.14484961579701,"lon":11.454206295312,"COVID-19 aktuell":8,"Klinikname":"Helios Klinikum München West"},{"lat":52.232069153103,"lon":10.999751186236999,"COVID-19 aktuell":4,"Klinikname":"Helios St. Marienberg Klinik Helmstedt"},{"lat":49.285523487235004,"lon":11.451848794554,"COVID-19 aktuell":1,"Klinikname":"Kliniken des Landkreises Neumarkt i.d.OPf. / Klinikum Neumarkt"},{"lat":53.148539865618,"lon":12.169218778545,"COVID-19 aktuell":0,"Klinikname":"KMG Klinikum Pritzwalk"},{"lat":49.58202623012,"lon":10.621789151237,"COVID-19 aktuell":3,"Klinikname":"Klinik Neustadt an der Aisch"},{"lat":49.456952202572005,"lon":11.066573649637,"COVID-19 aktuell":0,"Klinikname":"Diakoneo Klinik Hallerwiese - Cnopfsche Kinderklinik Nürnberg"},{"lat":54.290437034750994,"lon":10.880277872019999,"COVID-19 aktuell":0,"Klinikname":"Sana Klinik Oldenburg in Holstein"},{"lat":48.786731908746006,"lon":9.074553608861999,"COVID-19 aktuell":0,"Klinikname":"Klinik Schillerhöhe Robert-Bosch-Krankenhaus"},{"lat":52.542234057016,"lon":13.347827553716,"COVID-19 aktuell":0,"Klinikname":"Deutsches Herzzentrum Berlin"},{"lat":48.789273693351,"lon":9.203697305707001,"COVID-19 aktuell":0,"Klinikname":"Karl-Olga-Krankenhaus Stuttgart"},{"lat":51.34312397146,"lon":12.320682585223,"COVID-19 aktuell":0,"Klinikname":"Ev. Diakonissenkrankenhaus Leipzig"},{"lat":53.085718606891,"lon":10.604394436014001,"COVID-19 aktuell":0,"Klinikname":"Herz- und Gefäßzentrum Bad Bevensen"},{"lat":53.970694183658,"lon":13.609632611242,"COVID-19 aktuell":0,"Klinikname":"Klinikum Karlsburg"},{"lat":50.931087953294,"lon":6.923667099327,"COVID-19 aktuell":2,"Klinikname":"Malteser Krankenhaus St. Hildegardis"},{"lat":51.960632086638,"lon":7.648671448214,"COVID-19 aktuell":6,"Klinikname":"St. Franziskus-Hospital Münster"},{"lat":52.523669697726,"lon":13.378229856426001,"COVID-19 aktuell":0,"Klinikname":"Charité - Universitätsmedizin Berlin, Campus Mitte"},{"lat":47.83741268819,"lon":11.144314741823,"COVID-19 aktuell":2,"Klinikname":"Klinikum Weilheim "},{"lat":50.44037168914001,"lon":7.404745995981999,"COVID-19 aktuell":1,"Klinikname":"St. Nikolas Stiftshostpital Andernach"},{"lat":52.555278906927995,"lon":13.370569467479,"COVID-19 aktuell":0,"Klinikname":"Jüdisches Krankenhaus Berlin"},{"lat":49.442308209042,"lon":7.756798267365,"COVID-19 aktuell":6,"Klinikname":"Westpfalz-Klinikum GmbH"},{"lat":53.503688744911,"lon":9.985962733626,"COVID-19 aktuell":0,"Klinikname":"Wilhelmsburger Krankenhaus Groß-Sand"},{"lat":50.136002538494,"lon":8.710909581377999,"COVID-19 aktuell":0,"Klinikname":"Sankt Katharinen-Krankenhaus"},{"lat":50.961440439847,"lon":11.322625583428,"COVID-19 aktuell":0,"Klinikname":"Sophien- und Hufeland-Klinikum Weimar gGmbH"},{"lat":51.36301421363,"lon":6.411147737163,"COVID-19 aktuell":0,"Klinikname":"Hospital zum Heiligen Geist Kempen"},{"lat":50.656886809616005,"lon":7.8308739065960005,"COVID-19 aktuell":0,"Klinikname":"DRK Krankenhaus Altenkirchen-Hachenburg (HB)"},{"lat":53.075136342809,"lon":8.837436676058001,"COVID-19 aktuell":0,"Klinikname":"Klinik für Pädiatrische Intensivmedizin"},{"lat":49.992949180831005,"lon":8.259165929903,"COVID-19 aktuell":6,"Klinikname":"Universitätsmedizin Mainz"},{"lat":51.960538935624,"lon":12.093541377589998,"COVID-19 aktuell":1,"Klinikname":"Helios Klinik Zerbst/Anhalt"},{"lat":51.546553557540996,"lon":7.315626919253,"COVID-19 aktuell":1,"Klinikname":"St. Rochus - Hospital"},{"lat":52.233299562044,"lon":10.52669620527,"COVID-19 aktuell":3,"Klinikname":"Herzogin Elisabeth Hospital"},{"lat":49.458123742438005,"lon":8.408190697219,"COVID-19 aktuell":4,"Klinikname":"St. Marienkrankenhaus Ludwigshafen"},{"lat":51.453313274264005,"lon":6.7103000879620005,"COVID-19 aktuell":0,"Klinikname":"St. Johannes Stift"},{"lat":51.213667703464004,"lon":6.658748298810001,"COVID-19 aktuell":1,"Klinikname":"Johanna Etienne Krankenhaus"},{"lat":50.962863088277,"lon":6.966712832418,"COVID-19 aktuell":0,"Klinikname":"Kinderkrankenhaus Amsterdamer Strasse"},{"lat":53.471387569831,"lon":9.135576009685,"COVID-19 aktuell":0,"Klinikname":"OsteMed Kliniken und Pflege GmbH"},{"lat":47.983256035404,"lon":7.840717613681001,"COVID-19 aktuell":1,"Klinikname":"RKK-Lorreto Krankenhaus Freiburg"},{"lat":51.224390160017,"lon":6.470275640422,"COVID-19 aktuell":4,"Klinikname":"Krankenhaus Neuwerk"},{"lat":49.490855655148,"lon":8.423893690305999,"COVID-19 aktuell":6,"Klinikname":"Klinikum der Stadt Ludwigshafen"},{"lat":50.745418303174,"lon":8.284552261512001,"COVID-19 aktuell":0,"Klinikname":"Dill-Kliniken Dillenburg (Lahn-Dill-Kliniken)"},{"lat":52.208127711120994,"lon":9.473372340235,"COVID-19 aktuell":1,"Klinikname":"Deister-Süntel-Klinik Bad Münder"},{"lat":53.903603364398,"lon":9.893347263369,"COVID-19 aktuell":0,"Klinikname":"Klinikum Bad Bramstedt"},{"lat":49.449804255207006,"lon":10.997906685006999,"COVID-19 aktuell":1,"Klinikname":"Schön Klinik Nürnberg Fürth"},{"lat":49.657546805243996,"lon":6.948454767457,"COVID-19 aktuell":0,"Klinikname":"St. Josef Krakennhaus Herrmeskeil"},{"lat":52.081284590059994,"lon":12.875867664798,"COVID-19 aktuell":0,"Klinikname":"Johanniter-Krankenhaus Treuenbrietzen"},{"lat":48.957404202103994,"lon":10.132435083324,"COVID-19 aktuell":1,"Klinikname":"St. Anna-Virngrund-Klinik"},{"lat":53.470879874845,"lon":9.93764555451,"COVID-19 aktuell":0,"Klinikname":"Helios Mariahilf Hamburg"},{"lat":52.126395097108,"lon":8.700473427789,"COVID-19 aktuell":2,"Klinikname":"Klinikum Herford"},{"lat":51.062222506323,"lon":8.792190223928,"COVID-19 aktuell":0,"Klinikname":"Kreiskrankenhaus Frankenberg gGmbH"},{"lat":50.964353044222,"lon":11.888960122997,"COVID-19 aktuell":1,"Klinikname":"Waldkliniken Eisenberg/Thüringen"},{"lat":50.892672968533,"lon":7.0513472558379995,"COVID-19 aktuell":1,"Klinikname":"Krankenhaus Porz am Rhein (Köln)"},{"lat":47.698589217916,"lon":9.83571624769,"COVID-19 aktuell":1,"Klinikname":"Waldburg-Zeil Akutkliniken GmbH & Co. KG - Fachkliniken Wangen"},{"lat":47.787945360368994,"lon":9.621534937132,"COVID-19 aktuell":1,"Klinikname":"Elisabethen Klinikum OSK"},{"lat":49.611468956365,"lon":9.470789050937999,"COVID-19 aktuell":0,"Klinikname":"Krankenhaus Hardheim"},{"lat":52.85646921537,"lon":11.145434886266,"COVID-19 aktuell":0,"Klinikname":"Altmark-Klinikum Krankenhaus Salzwedel gGmbH"},{"lat":50.135372925729996,"lon":8.912375610716,"COVID-19 aktuell":0,"Klinikname":"St. Vinzenz-Krankenhaus Hanau gGmbH"},{"lat":50.770354595772,"lon":6.4878811240030005,"COVID-19 aktuell":0,"Klinikname":"St. Augustinus- Krankenhaus Düren"},{"lat":51.743884735622,"lon":14.322839498454002,"COVID-19 aktuell":1,"Klinikname":"Carl-Thiem-Klinikum Cottbus"},{"lat":51.005066756339,"lon":14.569731540978001,"COVID-19 aktuell":0,"Klinikname":"Klinikum Oberlausitzer Bergland gGmbH Ebersbach"},{"lat":53.03598773022,"lon":8.818875789675,"COVID-19 aktuell":0,"Klinikname":"Klinikum Links der Weser"},{"lat":49.313775044676,"lon":6.744250450283,"COVID-19 aktuell":4,"Klinikname":"Krankenhaus Saarlouis vom DRK"},{"lat":51.425864418806,"lon":6.887203842393,"COVID-19 aktuell":0,"Klinikname":"St. Marien-Hospital Mülheim an der Ruhr"},{"lat":48.772118488409006,"lon":9.187977790898,"COVID-19 aktuell":0,"Klinikname":"Sana Klinik Bethesda Stuttgart"},{"lat":51.308331669107,"lon":12.436151683314,"COVID-19 aktuell":0,"Klinikname":"HELIOS Park-Klinikum Leipzig"},{"lat":51.072726201174,"lon":6.808673322184,"COVID-19 aktuell":2,"Klinikname":"Rheinland Klinikum Dormagen GmbH"},{"lat":48.429734482689,"lon":13.184188127452,"COVID-19 aktuell":0,"Klinikname":"Passauer Wolf Rehazentrum Bad Griesbach"},{"lat":51.833002974089005,"lon":8.330376863578,"COVID-19 aktuell":2,"Klinikname":"St. Vinzenz Hospital Rheda-Wiedenbrück"},{"lat":51.710481901077,"lon":8.759543985119999,"COVID-19 aktuell":0,"Klinikname":"Frauen- und Kinderklinik St. Louise Paderborn"},{"lat":51.396954869070996,"lon":6.783368825945,"COVID-19 aktuell":0,"Klinikname":"Sana Kliniken Duisburg"},{"lat":47.873837340771,"lon":12.632477474108,"COVID-19 aktuell":0,"Klinikname":"Klinikum Traunstein"},{"lat":54.051750192808,"lon":13.764006095007,"COVID-19 aktuell":0,"Klinikname":"Kreiskrankenhaus Wolgast gGmbH"},{"lat":53.22912269612001,"lon":7.4454667568529995,"COVID-19 aktuell":0,"Klinikname":"Borromäus-Hospital Leer"},{"lat":52.494626963901,"lon":13.409019953042,"COVID-19 aktuell":2,"Klinikname":"Vivantes Klinikum am Urban (KAU)"},{"lat":54.236468365403994,"lon":12.444333627836,"COVID-19 aktuell":0,"Klinikname":"Bodden-Kliniken Ribnitz-Damgarten"},{"lat":50.772767229216,"lon":6.229546201483999,"COVID-19 aktuell":3,"Klinikname":"Bethlehem Gesundheitszentrum Stolberg"},{"lat":54.088500891852,"lon":13.404547154886998,"COVID-19 aktuell":0,"Klinikname":"Universitätsmedizin Greifswald"},{"lat":48.74966867125399,"lon":8.549775123629,"COVID-19 aktuell":0,"Klinikname":"Sana Klinik Bad Wildbad"},{"lat":51.423125734185,"lon":9.477583408388,"COVID-19 aktuell":0,"Klinikname":"Lungenfachklinik Immenhausen"},{"lat":51.109438157874,"lon":9.085568368419,"COVID-19 aktuell":0,"Klinikname":"Werner-Wicker-Klinik"},{"lat":49.308912016795,"lon":7.3457320332360005,"COVID-19 aktuell":0,"Klinikname":"Universitätsklnikum des Saarlandes"},{"lat":52.589038352606,"lon":13.900924967565999,"COVID-19 aktuell":3,"Klinikname":"Krankenhaus Märkisch-Oderland GmbH"},{"lat":51.495339621896,"lon":7.1014176160039995,"COVID-19 aktuell":0,"Klinikname":"Marienhospital Gelsenkirchen (MHG)"},{"lat":51.364504496386004,"lon":6.754266858134001,"COVID-19 aktuell":3,"Klinikname":"Malteser Krankenhaus St.Anna"},{"lat":50.424314854232996,"lon":8.390130043063001,"COVID-19 aktuell":0,"Klinikname":"Vitos Weil-Lahn gGmbH (Weilmünster)"},{"lat":51.643185223281,"lon":6.452771007998001,"COVID-19 aktuell":0,"Klinikname":"Sankt Josef Hospital Xanten"},{"lat":49.315695817169,"lon":8.421648941003,"COVID-19 aktuell":1,"Klinikname":"Sankt Vincentius Krankenhaus Speyer"},{"lat":51.460225761574,"lon":12.621658623202,"COVID-19 aktuell":0,"Klinikname":"KKH Delitzsch GmbH, Klinik Eilenburg"},{"lat":51.960420529706,"lon":8.002352893336,"COVID-19 aktuell":0,"Klinikname":"Josephs Hospital"},{"lat":53.606101108168,"lon":10.035914182663,"COVID-19 aktuell":5,"Klinikname":"Asklepios Klinik Barmbek Hamburg"},{"lat":50.106522133041,"lon":8.683677435019,"COVID-19 aktuell":2,"Klinikname":"Krankenhaus Sachsenhausen"},{"lat":51.161540703266,"lon":14.969681301154,"COVID-19 aktuell":1,"Klinikname":"Klinikum Görlitz g Gmbh "},{"lat":51.027457170596,"lon":7.846918344694,"COVID-19 aktuell":6,"Klinikname":"St. Martinus Hospital Olpe"},{"lat":52.453583789123,"lon":13.772192783654,"COVID-19 aktuell":1,"Klinikname":"Immanuel Klinik Rüdersdorf"},{"lat":51.493922507533,"lon":7.2282679080309995,"COVID-19 aktuell":6,"Klinikname":"KKB / St. Josef Hospital Bochum, Klinikum der Ruhr-Universität-Bochum"},{"lat":51.380675639817,"lon":6.7854287624689995,"COVID-19 aktuell":0,"Klinikname":"BG-Klinikum-Duisburg"},{"lat":53.577923798759,"lon":10.054193972756,"COVID-19 aktuell":0,"Klinikname":"Schön Klinik Hamburg Eilbek"},{"lat":49.401578306916,"lon":7.167375326188999,"COVID-19 aktuell":2,"Klinikname":"Marienhausklinik Ottweiler"},{"lat":53.319583629297,"lon":9.949818491968,"COVID-19 aktuell":0,"Klinikname":"Waldklinik Jesteburg Aldag GmbH & Co. KG"},{"lat":50.355980883861,"lon":7.564584195597,"COVID-19 aktuell":0,"Klinikname":"Gemeinschaftsklinikum Mittelrhein, Kinder- und Jugendmedizin, Kemperhof"},{"lat":49.251958261548005,"lon":8.890484064809,"COVID-19 aktuell":3,"Klinikname":"GRN Klinik Sinsheim"},{"lat":50.130737378619,"lon":8.686793088782,"COVID-19 aktuell":5,"Klinikname":"Bürgerhospital Frankfurt am Main"},{"lat":48.117000993997,"lon":11.743576884278,"COVID-19 aktuell":0,"Klinikname":"Isar-Amper-Klinikum München -Ost, Klinik für Neurolgie"},{"lat":53.46157479385101,"lon":9.675736963782,"COVID-19 aktuell":1,"Klinikname":"Elbe Klinikum Buxtehude"},{"lat":50.145647564691,"lon":8.709681129567,"COVID-19 aktuell":0,"Klinikname":"BG Unfallklinik Frankfurt am Main gGmbH"},{"lat":53.23344318708,"lon":8.793386220932,"COVID-19 aktuell":0,"Klinikname":"Kreiskrankenhaus Osterholz-Scharmbeck"},{"lat":51.068081221672,"lon":7.004953622818,"COVID-19 aktuell":0,"Klinikname":"St. Remigius-Krankenhaus Opladen"},{"lat":52.542234057016,"lon":13.347827553716,"COVID-19 aktuell":0,"Klinikname":"Deutsches Herzzentrum Berlin"},{"lat":50.09483837005,"lon":8.784871816652,"COVID-19 aktuell":1,"Klinikname":"Ketteler Krankenhaus Offenbach"},{"lat":51.679442701881,"lon":7.818176329119999,"COVID-19 aktuell":2,"Klinikname":"St. Marien-Hospital Hmm gmbH"},{"lat":48.15414180853,"lon":11.532668871805,"COVID-19 aktuell":4,"Klinikname":"Rotkreuzklinikum München"},{"lat":49.484503758062,"lon":10.974964678292,"COVID-19 aktuell":2,"Klinikname":"Klinikum Fürth"},{"lat":48.165042443184994,"lon":8.612275958094,"COVID-19 aktuell":0,"Klinikname":"Helios-Klinik Rottweil"},{"lat":48.424756284497,"lon":9.948150694354,"COVID-19 aktuell":5,"Klinikname":"Bundeswehrkrankenhaus Ulm - Intensivmedizin"},{"lat":49.867388623281,"lon":8.936789989602,"COVID-19 aktuell":0,"Klinikname":"Kreisklinken Darmstadt-Dieburg Standort Groß-Umstadt"},{"lat":53.431633289927,"lon":10.385399043544,"COVID-19 aktuell":2,"Klinikname":"Johanniter-Krankenhaus Geesthacht"},{"lat":51.193310232525995,"lon":8.5381085872,"COVID-19 aktuell":0,"Klinikname":"St. Franziskus Hospital Winterberg"},{"lat":50.883974250065,"lon":6.887293696436,"COVID-19 aktuell":1,"Klinikname":"Sana-Krankenhaus Hürth GmbH"},{"lat":53.510301099579,"lon":10.241016000591001,"COVID-19 aktuell":1,"Klinikname":"Krankenhaus Reibek St. Adolf Stift"},{"lat":52.013456454331,"lon":8.525701117214,"COVID-19 aktuell":0,"Klinikname":"Kinderzentrum Bielefeld-Bethel EvKB"},{"lat":51.713116912312,"lon":11.231196641857,"COVID-19 aktuell":1,"Klinikname":"Lungenklinik Ballenstedt/Harz GmbH"},{"lat":51.815733630652,"lon":12.197617471202,"COVID-19 aktuell":0,"Klinikname":"Städtisches Klinikum Dessau"},{"lat":49.423502451834004,"lon":8.684420675031001,"COVID-19 aktuell":3,"Klinikname":"Krankenhaus Salem"},{"lat":54.32290692780501,"lon":10.117073642969,"COVID-19 aktuell":1,"Klinikname":"Städtisches Krankenhaus Kiel"},{"lat":51.158093140952,"lon":6.420085608942999,"COVID-19 aktuell":0,"Klinikname":"Städtische Kliniken Mönchengladbach Kinderklinik Früh-Neugeborenenintensiv "},{"lat":48.797742186794004,"lon":9.528851151499,"COVID-19 aktuell":6,"Klinikname":"Rems Murr Klinik Schorndorf"},{"lat":49.96700357452,"lon":11.584785819086001,"COVID-19 aktuell":0,"Klinikname":"Klinik Hohe Warte"},{"lat":49.757486727457,"lon":11.527570277444001,"COVID-19 aktuell":0,"Klinikname":"Sana Klinik Pegnitz GmbH"},{"lat":48.462508195562,"lon":11.13964936138,"COVID-19 aktuell":0,"Klinikname":"kliniken an der Paar - Krankenhaus Aichach"},{"lat":50.997881605295,"lon":6.576904606804,"COVID-19 aktuell":1,"Klinikname":"Krankenhaus St. Hubertus-Sift GmbH Bedburg"},{"lat":49.660271915527,"lon":10.088237123564,"COVID-19 aktuell":2,"Klinikname":"Main-Klinik Ochsenfurt, 97199 Ochsenfurt"},{"lat":53.689610571125,"lon":10.779469728403999,"COVID-19 aktuell":0,"Klinikname":"DRK Krankenhaus Ratzeburg"},{"lat":49.811506031558,"lon":9.166757011499,"COVID-19 aktuell":1,"Klinikname":"Helios Klinik Erlenbach"},{"lat":51.559244496028,"lon":6.72608087305,"COVID-19 aktuell":1,"Klinikname":"GFO Kliniken Niederrhein - St. Vinzenz-Hospital Dinslaken"},{"lat":48.007069191041005,"lon":11.335193395680001,"COVID-19 aktuell":0,"Klinikname":"Klinikum Starnberg"},{"lat":50.81526897788,"lon":8.805859994881999,"COVID-19 aktuell":0,"Klinikname":"Universitätsklinikum Marburg UKGM"},{"lat":50.9252131828,"lon":6.956298351288001,"COVID-19 aktuell":2,"Klinikname":"Krankenhaus der Augustinerinnen gGmbH, Köln"},{"lat":47.948462479834006,"lon":12.187999606149,"COVID-19 aktuell":3,"Klinikname":"Schön-Klinik Vogtareuth"},{"lat":47.483929564175995,"lon":11.127636015399,"COVID-19 aktuell":3,"Klinikname":"Klinikum Garmisch-Partenkirchen"},{"lat":49.46337696797,"lon":8.990470513697,"COVID-19 aktuell":0,"Klinikname":"GRN Klinik Eberbach"},{"lat":51.196351936376,"lon":6.789506149416,"COVID-19 aktuell":8,"Klinikname":"Universitätsklinikum"},{"lat":50.707350281652005,"lon":7.031852826476,"COVID-19 aktuell":3,"Klinikname":"Malteser Krankenhaus Seliger Gerhard Bonn/Rhein-Sieg"},{"lat":49.482298504852,"lon":11.135901188822999,"COVID-19 aktuell":3,"Klinikname":"Martha-Marta Krankenhaus Nürnberg"},{"lat":53.545289698041,"lon":8.082759618792,"COVID-19 aktuell":0,"Klinikname":"Klinikum Wilhelmshaven gGmbH"},{"lat":51.853799621812,"lon":13.703354358477002,"COVID-19 aktuell":0,"Klinikname":"Evangelisches Krankenhaus Luckau"},{"lat":51.708239818582,"lon":7.841748386612999,"COVID-19 aktuell":3,"Klinikname":"St. Barbara-Klinik Hamm GmbH"},{"lat":51.391509018616,"lon":7.085933268054,"COVID-19 aktuell":0,"Klinikname":"Katholische Kliniken Ruhrhalbinsel - St.Josef Krankenhaus Kupferdreh"},{"lat":50.06569063269399,"lon":8.191581665733,"COVID-19 aktuell":5,"Klinikname":"Helios Dr. Horst- Schmidt Klinik Wiesbaden"},{"lat":51.837731533843005,"lon":12.226864278299999,"COVID-19 aktuell":0,"Klinikname":"Diakonissenkrankenhaus Dessau gemeinnützige GmbH"},{"lat":51.684975604102,"lon":8.343058414757,"COVID-19 aktuell":0,"Klinikname":"Ev. Krankenhaus Lippstadt; Kinderintensivstation"},{"lat":50.923308887945005,"lon":6.917503255522,"COVID-19 aktuell":0,"Klinikname":"Uniklinik Köln, Neonatologie und Pädiatrische Intensivmedizin"},{"lat":52.522739152243005,"lon":11.38251378512,"COVID-19 aktuell":0,"Klinikname":"Altmarkklinikum GGmbH, Standort Gardelegen"},{"lat":50.369985739731,"lon":7.541914701396,"COVID-19 aktuell":8,"Klinikname":"BwZKrHs Koblenz"},{"lat":50.724600809339,"lon":7.114107513315999,"COVID-19 aktuell":0,"Klinikname":"Universitätskinderklinik Bonn, Neonatologie und Pädiatrischen Intensivmedizin"},{"lat":51.673275388369,"lon":8.338460504992,"COVID-19 aktuell":0,"Klinikname":"Dreifaltigkeits-Hospital gem. GmbH, Lippstadt"},{"lat":49.317814087963,"lon":7.227321624887001,"COVID-19 aktuell":0,"Klinikname":"Marienhausklinik St. Josef Kohlhof"},{"lat":51.78248017421699,"lon":8.826894253484,"COVID-19 aktuell":0,"Klinikname":"Karl-Hansen-Klinik Bad Lippspringe"},{"lat":52.426059107899,"lon":12.479138523304,"COVID-19 aktuell":0,"Klinikname":"Asklepios Fachklinikum Brandenburg, Neurologische Intensivstation"},{"lat":53.333455000899,"lon":9.873097658092,"COVID-19 aktuell":1,"Klinikname":"Krankenhaus Buchholz gGmbh"},{"lat":51.461968759807995,"lon":6.854539632732,"COVID-19 aktuell":0,"Klinikname":"Helios St. Elisabeth Klinik Oberhausen"},{"lat":51.584046600229996,"lon":6.249980449774999,"COVID-19 aktuell":3,"Klinikname":"Katholisches Karl-Leisner-Klinikum gGmbH Marienhospital Kevelaer"},{"lat":51.212615409228,"lon":6.773145943866,"COVID-19 aktuell":2,"Klinikname":"EVK Düsseldorf"},{"lat":52.431348315318004,"lon":13.219185590678999,"COVID-19 aktuell":0,"Klinikname":"Evangelisches Krankenhaus Hubertus"},{"lat":48.870055503957005,"lon":9.392342805895,"COVID-19 aktuell":18,"Klinikname":"Rems-Murr-Klinikum Winnenden"},{"lat":53.606101108168,"lon":10.035914182663,"COVID-19 aktuell":2,"Klinikname":"Asklepios Klinik Barmbek"},{"lat":51.897660201973,"lon":8.383384555586,"COVID-19 aktuell":5,"Klinikname":"Klinikum Gütersloh gGmbH"},{"lat":51.325714777822,"lon":6.584742799409,"COVID-19 aktuell":2,"Klinikname":"Alexianer Krefeld GmbH"},{"lat":50.71673862348,"lon":7.093688177119,"COVID-19 aktuell":2,"Klinikname":"St. Marien-Hospital Bonn"},{"lat":49.489247503462,"lon":8.482151806338,"COVID-19 aktuell":0,"Klinikname":"Theresienkrankenhaus Mannheim"},{"lat":53.943459393135,"lon":10.307963669284,"COVID-19 aktuell":0,"Klinikname":"Segeberger Kliniken GmbH"},{"lat":48.134709945684,"lon":11.565120398982,"COVID-19 aktuell":0,"Klinikname":"Isar Kliniken GmbH"},{"lat":51.517305645458,"lon":6.844843983617,"COVID-19 aktuell":1,"Klinikname":"Katholisches Klinikum Oberhausen, St. Clemens Hospital "},{"lat":52.151614552443,"lon":9.975515127117,"COVID-19 aktuell":3,"Klinikname":"Helios Klinikum Hildesheim"},{"lat":51.058086530837,"lon":13.77770733835,"COVID-19 aktuell":0,"Klinikname":"Uniklinikum Dresden, Internistische Intensivstation"},{"lat":52.668058053841,"lon":7.938766837086999,"COVID-19 aktuell":0,"Klinikname":"Christliches Krankenhaus Quakenbrück"},{"lat":49.99611393683,"lon":9.572110371664,"COVID-19 aktuell":0,"Klinikname":"Klinikum Main-Spessart Lohr"},{"lat":49.980434681352996,"lon":7.517382698134,"COVID-19 aktuell":7,"Klinikname":"Hunsrück Klinik kreuznacher Diakonie"},{"lat":49.65232795372,"lon":8.562699079448,"COVID-19 aktuell":0,"Klinikname":"Schön Klinik Lorsch"},{"lat":47.61440782515,"lon":7.6590980077160005,"COVID-19 aktuell":5,"Klinikname":"KKH Lörrach, Kreiskliniken des Landkreises Lörrach"},{"lat":50.927604092591,"lon":6.9250339865359996,"COVID-19 aktuell":0,"Klinikname":"Evangelisches Klinikum Köln Weyertal"},{"lat":49.466536086758005,"lon":8.178756952302,"COVID-19 aktuell":1,"Klinikname":"Evangelisches Krankenhaus Bad Dürkheim"},{"lat":52.743077973048,"lon":13.242150127871001,"COVID-19 aktuell":0,"Klinikname":"Krankenhaus Oranienburg Oberhavel Kliniken GmbH"},{"lat":49.464373064597,"lon":8.471255949153,"COVID-19 aktuell":1,"Klinikname":"Diakonissenkrankenhaus Mannheim"},{"lat":49.980161301004,"lon":10.101361960165,"COVID-19 aktuell":0,"Klinikname":"OKH Schloss Werneck"},{"lat":50.947320438694,"lon":6.962529659304,"COVID-19 aktuell":1,"Klinikname":"St. Marien-Hospital Köln"},{"lat":49.489247503462,"lon":8.482151806338,"COVID-19 aktuell":1,"Klinikname":"Theresienkrankenhaus Mannheim"},{"lat":50.958515252320005,"lon":13.952973389351001,"COVID-19 aktuell":0,"Klinikname":"Helios Klinikum Pirna"},{"lat":52.655552769252004,"lon":13.190437138064,"COVID-19 aktuell":4,"Klinikname":"Klinik Hennigsdorf der Oberhavel - Kliniken GmbH"},{"lat":49.124631741102,"lon":9.741652250323,"COVID-19 aktuell":10,"Klinikname":"Diakoneo Diak Klinikum"},{"lat":51.669985145686,"lon":7.8270758986310005,"COVID-19 aktuell":1,"Klinikname":"Evangelisches Krankenhaus Hamm"},{"lat":51.30319757913,"lon":12.378561973310001,"COVID-19 aktuell":0,"Klinikname":"St. Elisabeth- KH Leipzig, Biedermannstraße 84, 04277 Leipzig"},{"lat":53.082453012108004,"lon":11.079501092418,"COVID-19 aktuell":0,"Klinikname":"Capio Elbe-Jeetzel-Klinik"},{"lat":52.198265162611996,"lon":8.593985036011,"COVID-19 aktuell":0,"Klinikname":"Lukas Krankenhaus Bünde"},{"lat":49.757486727457,"lon":11.527570277444001,"COVID-19 aktuell":0,"Klinikname":"sana-pegnitz.de"},{"lat":49.41552091763,"lon":8.666354656252,"COVID-19 aktuell":0,"Klinikname":"Neurochirurgische Universitätsklinik Heidelberg"},{"lat":50.333869271015,"lon":7.724475503001,"COVID-19 aktuell":0,"Klinikname":"Paracelsus-Klinik Bad Ems"},{"lat":51.207207716955004,"lon":7.662002027018,"COVID-19 aktuell":6,"Klinikname":"Klinikum Lüdenscheid"},{"lat":49.542970869076996,"lon":8.330806016857,"COVID-19 aktuell":2,"Klinikname":"Stadtklinik Frankenthal"},{"lat":51.300317890771,"lon":6.749400258032,"COVID-19 aktuell":2,"Klinikname":"Florence-Nightingale-Krankenhaus interdisziplinäre Intensivstation"},{"lat":51.769245786699,"lon":7.447484314425,"COVID-19 aktuell":2,"Klinikname":"St. Marien Hospital Lüdinghausen"},{"lat":51.533209203115995,"lon":7.677076578075,"COVID-19 aktuell":0,"Klinikname":"Evangelisches Krankenhaus Unna"},{"lat":49.017178424467,"lon":8.373053893447,"COVID-19 aktuell":5,"Klinikname":"Städtisches Klinikum Karlsruhe gGmbH"},{"lat":51.870511171937,"lon":12.656023085101,"COVID-19 aktuell":1,"Klinikname":"Evangelisches Krankenhaus Paul Gerhardt Stift"},{"lat":50.76763533191399,"lon":7.452224884182,"COVID-19 aktuell":0,"Klinikname":"St. Franziskus Krankenhaus Eitorf"},{"lat":51.47852893464599,"lon":7.441745191804,"COVID-19 aktuell":0,"Klinikname":"Marien Hospital Dortmund-Hombruch"},{"lat":51.058086530837,"lon":13.77770733835,"COVID-19 aktuell":0,"Klinikname":"Universitätsklinikum Dresden, Kinderintensivstation"},{"lat":48.339887415202,"lon":7.8908563616639995,"COVID-19 aktuell":1,"Klinikname":"Mediclin Herzzentrum Lahr/Baden"},{"lat":51.474229698028005,"lon":6.866135358778,"COVID-19 aktuell":0,"Klinikname":"Evangelisches Krankenhaus Oberhausen - Kinderintensivstation"},{"lat":54.790533539761,"lon":9.426069455221,"COVID-19 aktuell":0,"Klinikname":"Diakonissenkrankenhaus Flensburg"},{"lat":49.968142241709,"lon":7.896952807887,"COVID-19 aktuell":0,"Klinikname":"Heilig-Geist-Hospital Bingen gGmbH"},{"lat":49.247909394406,"lon":6.959429457711001,"COVID-19 aktuell":1,"Klinikname":"CaritasKlinikum Saarbrücken Standort St. Theresia (Rastpfuhl)"},{"lat":50.961933953238,"lon":7.175029277932,"COVID-19 aktuell":3,"Klinikname":"GFO Kliniken Rhein-Berg"},{"lat":51.480677983394,"lon":7.509634852377,"COVID-19 aktuell":0,"Klinikname":"Huettenhospital, Dortmund"},{"lat":51.44219026249001,"lon":7.06172844395,"COVID-19 aktuell":0,"Klinikname":"Evang. Krankenhaus Essen-Steele - KEM"},{"lat":48.00524474827699,"lon":7.839340925129,"COVID-19 aktuell":0,"Klinikname":"Zentrum für Kinder- und Jugendmedizin, Päd. Intensivstation, Universitätsklinikum Freiburg"},{"lat":48.445338693962,"lon":12.360019862636001,"COVID-19 aktuell":3,"Klinikname":"LAKUMED Krankenhaus Vilsbiburg"},{"lat":52.393653192452,"lon":13.089561939305,"COVID-19 aktuell":0,"Klinikname":"OBERLIN KLINIK Potsdam"},{"lat":50.990031223958,"lon":7.1375491619439995,"COVID-19 aktuell":0,"Klinikname":"Evangelisches Krankenhaus Bergisch Gladbach"},{"lat":51.59993517091699,"lon":7.085793256792001,"COVID-19 aktuell":0,"Klinikname":"Gertrudis- Hospital Westerholt"},{"lat":53.506764372164,"lon":8.009217739236,"COVID-19 aktuell":1,"Klinikname":"Nordwest-Krankenhaus Sanderbusch"},{"lat":53.044824908295,"lon":8.592882513885,"COVID-19 aktuell":0,"Klinikname":"Stadtkrankenhaus Delmenhorst"},{"lat":54.32290692780501,"lon":10.117073642969,"COVID-19 aktuell":0,"Klinikname":"Städtisches Krankenhaus Kiel Operative Intensivstation"},{"lat":54.353174510392,"lon":10.116285771123,"COVID-19 aktuell":0,"Klinikname":"Lubinus Clinicum"},{"lat":49.454133774318,"lon":7.178329467806,"COVID-19 aktuell":0,"Klinikname":"Marienkrankenhaus St. Wendel"},{"lat":51.882741502413,"lon":8.381511944449,"COVID-19 aktuell":1,"Klinikname":"Sankt Elisabeth Hospital Gütersloh"},{"lat":49.485865508321,"lon":8.388782501352,"COVID-19 aktuell":0,"Klinikname":"BG Klinik Ludwigshafen"},{"lat":51.718585877981994,"lon":8.759051799807,"COVID-19 aktuell":2,"Klinikname":"St. Vincenz-Krankenhaus GmbH"},{"lat":51.235824766012,"lon":6.785360164939999,"COVID-19 aktuell":3,"Klinikname":"Marien Hospital Düsseldorf"},{"lat":50.745334121302996,"lon":7.089146018061,"COVID-19 aktuell":0,"Klinikname":"LVR-Klinik Bonn"},{"lat":50.938275499264,"lon":7.053503966017,"COVID-19 aktuell":0,"Klinikname":"Kliniken der Stadt Köln gGmbH - Krankenhaus Merheim"},{"lat":49.034470698732996,"lon":10.984474182260001,"COVID-19 aktuell":4,"Klinikname":"Klinikum Altmühlfranken Weißenburg"},{"lat":49.107583287499,"lon":10.774124622476,"COVID-19 aktuell":3,"Klinikname":"Klinikum Altmühlfranken Gunzenhausen"},{"lat":51.314572022932,"lon":7.514856040461,"COVID-19 aktuell":0,"Klinikname":"VAMED Klinik Hagen Ambrock"},{"lat":49.868406900305004,"lon":10.89050138,"COVID-19 aktuell":4,"Klinikname":"Klinikum Bamberg Medizinische Klinik I/Intensivstation II"},{"lat":52.525902143358,"lon":13.397046089303,"COVID-19 aktuell":0,"Klinikname":"Alexianer Hedwigkliniken (Standorte St. Hedwig und Hedwigshöhe gemeinsam)"},{"lat":50.82211766325,"lon":6.98625648025,"COVID-19 aktuell":1,"Klinikname":"Dreifaltigkeits-Krankenhaus Wesseling"},{"lat":48.805360146165,"lon":13.546157062037,"COVID-19 aktuell":0,"Klinikname":"Kliniken am Goldenen Steig - Krankenhaus Freyung"},{"lat":48.385064554485,"lon":10.874889850747001,"COVID-19 aktuell":0,"Klinikname":"KJF Klinik Josefinum Augsburg"},{"lat":51.567318189066,"lon":7.319482415942,"COVID-19 aktuell":0,"Klinikname":"Evk Castrop-Rauxel"},{"lat":49.912804671804,"lon":8.475250482625,"COVID-19 aktuell":2,"Klinikname":"Kreisklinik Groß-Gerau"},{"lat":52.859423053185,"lon":9.586055695945,"COVID-19 aktuell":1,"Klinikname":"Heidekreis-Klinikum gGmbH - Standort Walsrode"},{"lat":52.989070611951,"lon":9.855869293115,"COVID-19 aktuell":0,"Klinikname":"Heidekreis-Klinikum gGmbh - Standort Soltau"},{"lat":53.434521276425,"lon":11.182369708989999,"COVID-19 aktuell":0,"Klinikname":"Westmecklenburg Klinikum Helene von Bülow Krankenhaus Hagenow"},{"lat":52.215771478175,"lon":11.727941751456001,"COVID-19 aktuell":0,"Klinikname":"Lungenklinik Lostau gGmbH"},{"lat":48.815009902091,"lon":11.506906270915,"COVID-19 aktuell":0,"Klinikname":"Kliniken im Naturpark Altmühltal, Klinik Kösching"},{"lat":49.49142711994799,"lon":8.487168073589,"COVID-19 aktuell":0,"Klinikname":"Universitätsmedizin Mannheim"},{"lat":50.557756016505,"lon":10.397240889115,"COVID-19 aktuell":0,"Klinikname":"Helios Klinikum Meiningen"},{"lat":51.524256834301006,"lon":7.368412792666,"COVID-19 aktuell":1,"Klinikname":"Katholisches Krankenhaus Dortmund West"},{"lat":53.331157140776995,"lon":11.498286724172,"COVID-19 aktuell":0,"Klinikname":"Westmecklenburg Klinikum Helene von Bülow Krankenhaus Ludwigslust"},{"lat":52.43255291529,"lon":13.325926780717001,"COVID-19 aktuell":2,"Klinikname":"Krankenhaus Bethel Berlin gGmbH"},{"lat":52.493345706540005,"lon":9.465409760156,"COVID-19 aktuell":2,"Klinikname":"KRH Klinikum Neustadt am Rübenberge"},{"lat":52.208308511611,"lon":7.020679950747,"COVID-19 aktuell":1,"Klinikname":"St. Antonius-Hospital"},{"lat":53.595440432972005,"lon":9.443376767658,"COVID-19 aktuell":0,"Klinikname":"Elbeklinikum Stade"},{"lat":51.354401750018,"lon":7.465771615489,"COVID-19 aktuell":3,"Klinikname":"Agaplesion Allgemeines Krankenhaus Hagen gGmbH"},{"lat":51.130516832494,"lon":6.942112684283,"COVID-19 aktuell":1,"Klinikname":"St. Martinus Krankenhaus Langenfeld"},{"lat":50.851537288052995,"lon":8.018070101770999,"COVID-19 aktuell":1,"Klinikname":"Diakonie Klinikum Jung-Stilling"},{"lat":48.102224465802,"lon":11.629772381857,"COVID-19 aktuell":5,"Klinikname":"Helios Klinik München Perlach"},{"lat":51.499476129246,"lon":7.005811795625,"COVID-19 aktuell":0,"Klinikname":"Marienhospital Altenessen"},{"lat":50.198267164412,"lon":10.084851589054,"COVID-19 aktuell":0,"Klinikname":"Klinik Bavaria Bad Kissingen"},{"lat":48.404856421336,"lon":11.744297325595,"COVID-19 aktuell":10,"Klinikname":"Klinikum Freising"},{"lat":53.392550366892,"lon":8.139644443972,"COVID-19 aktuell":0,"Klinikname":"St. Johannes-Hospital Varel"},{"lat":53.544754199834,"lon":13.294242382017,"COVID-19 aktuell":0,"Klinikname":"Dietrich-Bonhoeffer-Klinikum Neubrandenburg"},{"lat":47.672547269716,"lon":9.597669124669,"COVID-19 aktuell":0,"Klinikname":"Medizin Campus Bodensee - Klinik Tettnang"},{"lat":52.55738744394,"lon":13.37627667187,"COVID-19 aktuell":1,"Klinikname":"DRK Kliniken Berlin Mitte"},{"lat":47.85684858304499,"lon":12.029035806589999,"COVID-19 aktuell":5,"Klinikname":"Schön Klinik Bad Aibling Harthausen"},{"lat":49.018093137891,"lon":8.375674009257999,"COVID-19 aktuell":0,"Klinikname":"Helios Klinik für Herzchirurgie Karlsruhe"},{"lat":49.205361466111,"lon":9.498054563983,"COVID-19 aktuell":3,"Klinikname":"Hohenloher Krankenhaus Öhringen"},{"lat":50.111161470424996,"lon":10.992414593729,"COVID-19 aktuell":0,"Klinikname":"Schön Klinik Bad Staffelstein"},{"lat":49.463117134636,"lon":11.063412129879,"COVID-19 aktuell":7,"Klinikname":"Klinikum Nürnberg Nord - Intensivstation 10/II"},{"lat":51.285717111258,"lon":6.375237464872,"COVID-19 aktuell":0,"Klinikname":"St. Irmgardis Süchteln GmbH"},{"lat":51.944033404109,"lon":7.170287132394001,"COVID-19 aktuell":0,"Klinikname":"Christophoruskliniken Coesfeld"},{"lat":50.243595963641006,"lon":11.332509683816,"COVID-19 aktuell":0,"Klinikname":"Helios Frankenwaldklinik Kronach"},{"lat":52.43255291529,"lon":13.325926780717001,"COVID-19 aktuell":1,"Klinikname":"Krankenhaus Bethel Berlin"},{"lat":53.183220887632,"lon":8.593111038207999,"COVID-19 aktuell":3,"Klinikname":"Klinikum-Bremen-Nord"},{"lat":47.673168568051004,"lon":9.430213451451,"COVID-19 aktuell":4,"Klinikname":"Medizin Campus Bodensee - Klinikum Friedrichshafen"},{"lat":47.911741632379,"lon":11.42830038074,"COVID-19 aktuell":2,"Klinikname":"Kreisklinik Wolfratshausen"},{"lat":51.635379882902,"lon":13.698356866771,"COVID-19 aktuell":0,"Klinikname":"Elbe-Elster-Klinikum, Standort Finsterwalde"},{"lat":51.944170635812995,"lon":13.875671267542,"COVID-19 aktuell":0,"Klinikname":"Spreewaldklinik Lübben"},{"lat":50.936776052749,"lon":6.904641151559,"COVID-19 aktuell":0,"Klinikname":"Sana Dreifaltigkeits-Krankenhaus Köln"},{"lat":51.932868281317994,"lon":7.614611148965,"COVID-19 aktuell":3,"Klinikname":"Clemenshospital Münster"},{"lat":49.321130751587,"lon":10.558798491938,"COVID-19 aktuell":0,"Klinikname":"ANregiomed Klinikum Ansbach"},{"lat":51.843295118366,"lon":7.821974873559,"COVID-19 aktuell":0,"Klinikname":"St. Josef-Stift Sendenhorst, orthopädische Fachklinik"},{"lat":47.825130185444,"lon":10.899176448501999,"COVID-19 aktuell":3,"Klinikname":"Krankenhaus GmbH Landkreis Weilheim-Schongau - Krankenhaus Schongau"},{"lat":53.112105072622,"lon":8.217821824574,"COVID-19 aktuell":0,"Klinikname":"Klinikum Oldenburg AöR Pädiatrie"},{"lat":50.492359253378,"lon":12.152829945071002,"COVID-19 aktuell":1,"Klinikname":"Helios Vogtlandklinikum Plauen"},{"lat":48.339586961280006,"lon":10.865911424144,"COVID-19 aktuell":0,"Klinikname":"Orthopädische Fachkliniken der Hessing Stiftung"},{"lat":48.048473259358,"lon":10.855728149545,"COVID-19 aktuell":4,"Klinikname":"Klinikum Landsberg am Lech"},{"lat":51.058086530837,"lon":13.77770733835,"COVID-19 aktuell":0,"Klinikname":"Universitätsklinikum Dresden"},{"lat":48.784711946944,"lon":8.216414630397,"COVID-19 aktuell":0,"Klinikname":"Klinikum Mittelbaden Klinik-Balg, Klinik für Kinder und Jugendmedizin"},{"lat":53.350658589121,"lon":10.200849652274,"COVID-19 aktuell":0,"Klinikname":"Krankenhaus Winsen (Luhe)"},{"lat":50.547197450645,"lon":9.705839931949,"COVID-19 aktuell":8,"Klinikname":"Klinikum Fulda"},{"lat":49.41552091763,"lon":8.666354656252,"COVID-19 aktuell":0,"Klinikname":"Zentrum für Kinder- und Jugendmedizin, Universitätsklinikum Heidelberg"},{"lat":52.311264775823005,"lon":13.258243381961,"COVID-19 aktuell":1,"Klinikname":"Evangelisches Krankenhaus Ludwigsfelde/ Teltow gemeinnützige GmbH"},{"lat":51.155714433494,"lon":12.920708835150002,"COVID-19 aktuell":2,"Klinikname":"Helios Klinik Leisnig"},{"lat":51.443761757032,"lon":7.56751853226,"COVID-19 aktuell":0,"Klinikname":"Marienkrankenhaus Schwerte"},{"lat":49.836813030632,"lon":7.863286323845,"COVID-19 aktuell":0,"Klinikname":"Diakonie Krankenhaus kreuznacher diakonie, Standort Bad Kreuznach"},{"lat":48.265405312502004,"lon":11.428862571847,"COVID-19 aktuell":8,"Klinikname":"Helios Amper-Klinikum Dachau"},{"lat":49.797394228169004,"lon":9.930120885355999,"COVID-19 aktuell":4,"Klinikname":"Klinikum Würzburg Mitte - Standort Juliusspital"},{"lat":50.592479395497996,"lon":12.715272143471001,"COVID-19 aktuell":3,"Klinikname":"Helios Klinikum Aue GmbH"},{"lat":50.76760310014,"lon":6.076465666310001,"COVID-19 aktuell":6,"Klinikname":"Luisenhospital Aachen"},{"lat":50.682313124283,"lon":7.137630701,"COVID-19 aktuell":0,"Klinikname":"Neurologisches Rehabilitations-Zentrum Godeshöhe"},{"lat":54.792584112360004,"lon":9.42023777965,"COVID-19 aktuell":2,"Klinikname":"Malteser Krankenhaus St. Franziskus Hospital Flensburg"},{"lat":50.136725666604995,"lon":8.64739197491,"COVID-19 aktuell":1,"Klinikname":"AGAPLESION MARKUS KRANKENHAUS"},{"lat":48.724084129153994,"lon":10.754580974644,"COVID-19 aktuell":3,"Klinikname":"Donau-Ries-Klinik Donauwörth"},{"lat":51.389902586529,"lon":7.757626533312,"COVID-19 aktuell":0,"Klinikname":"Paracelsus Klinik Hemer"},{"lat":54.329666500374,"lon":10.142877459493,"COVID-19 aktuell":4,"Klinikname":"Universitätsklinikum Schleswig-Holstein, Campus Kiel"},{"lat":51.160969631826,"lon":11.813953757319,"COVID-19 aktuell":0,"Klinikname":"Klinikum Naumburg (Saale)"},{"lat":53.506161388142004,"lon":10.17716681954,"COVID-19 aktuell":0,"Klinikname":"BG Klinikum Hamburg"},{"lat":53.852887327478,"lon":8.69202446931,"COVID-19 aktuell":3,"Klinikname":"Helios Klinik Cuxhaven"},{"lat":50.0403132101,"lon":10.514809727702,"COVID-19 aktuell":0,"Klinikname":"Haßberg-Kliniken Haus Haßfurt"},{"lat":54.586144328334,"lon":10.022007465395,"COVID-19 aktuell":0,"Klinikname":"Vamed Ostseeklinik Damp"},{"lat":53.651237361309995,"lon":11.406676948053999,"COVID-19 aktuell":1,"Klinikname":"Helios Kliniken Schwerin"},{"lat":48.837036815158996,"lon":10.498657465014,"COVID-19 aktuell":2,"Klinikname":"Stiftungskrankenhaus Nördlingen"},{"lat":48.156890901522,"lon":11.5256467566,"COVID-19 aktuell":1,"Klinikname":"Krankenhaus Neuwittelsbach"},{"lat":53.821486110441,"lon":10.193604469168001,"COVID-19 aktuell":1,"Klinikname":"Medizinische Klinik Borstel, Forschungszentrum Borstel"},{"lat":52.971664737141,"lon":10.532072371224999,"COVID-19 aktuell":0,"Klinikname":"Helios- Klinikum Uelzen"},{"lat":53.589913025365,"lon":9.974761963021999,"COVID-19 aktuell":0,"Klinikname":"Universitätsklinikum Hamburg-Eppendorf"},{"lat":52.264669082420994,"lon":11.832811403428,"COVID-19 aktuell":1,"Klinikname":"Helios Klinik Jerichower Land GmbH"},{"lat":52.419218713675,"lon":13.164039373331999,"COVID-19 aktuell":0,"Klinikname":"Immanuel-Krankenhaus GmbH"},{"lat":47.982971923559,"lon":10.169085323818999,"COVID-19 aktuell":0,"Klinikname":"Klinikum Memmingen AöR"},{"lat":52.370723785107,"lon":9.724568778083,"COVID-19 aktuell":1,"Klinikname":"DIAKOVERE Friederikenstift"},{"lat":51.490235137469995,"lon":6.762057065898,"COVID-19 aktuell":1,"Klinikname":"Helios Klinikum Duisburg"},{"lat":48.805782350793,"lon":12.896912813120998,"COVID-19 aktuell":0,"Klinikname":"Bezirksklinikum Mainkofen"},{"lat":51.56842089302,"lon":7.20808396416,"COVID-19 aktuell":0,"Klinikname":"Elisabeth-Krankenhaus Recklinghausen"},{"lat":52.422884442758,"lon":13.25299161671,"COVID-19 aktuell":0,"Klinikname":"HELIOS Klinikum Emil von Behring"},{"lat":48.104062192855,"lon":11.566836476359,"COVID-19 aktuell":0,"Klinikname":"Schön Klinik München-Harlaching"},{"lat":50.803812514300006,"lon":10.218076944548,"COVID-19 aktuell":0,"Klinikname":"Klinikum Bad Salzungen"},{"lat":50.899588821645004,"lon":7.864717617631,"COVID-19 aktuell":0,"Klinikname":"Diakonieklinikum Bethsda Freudenberg"},{"lat":48.096319472168,"lon":9.225757509462,"COVID-19 aktuell":3,"Klinikname":"SRH Kliniken Landkreis Sigmaringen"},{"lat":51.373153369651,"lon":10.879312276775,"COVID-19 aktuell":0,"Klinikname":"KMG Klinikum Sondershausen"},{"lat":52.157544889068,"lon":11.582455515845,"COVID-19 aktuell":0,"Klinikname":"Klinikum Magdeburg gGmbH"},{"lat":50.662213927189,"lon":12.197693109447,"COVID-19 aktuell":5,"Klinikname":"KKH Greiz GmbH"},{"lat":49.604506581416,"lon":10.968613207324,"COVID-19 aktuell":0,"Klinikname":"Klinikum am Europakanal"},{"lat":50.001792732594005,"lon":12.067034768852,"COVID-19 aktuell":0,"Klinikname":"Klinikum Fichtelgebirge gGmbH"},{"lat":51.82150299437,"lon":8.142901182191,"COVID-19 aktuell":3,"Klinikname":"Marienhospital Oelde"},{"lat":49.977267858552,"lon":9.187191367181999,"COVID-19 aktuell":0,"Klinikname":"Klinikum Aschaffenburg Abteilung Neonatologie / pädiatrische Intensivmedizin"},{"lat":50.06569063269399,"lon":8.191581665733,"COVID-19 aktuell":0,"Klinikname":"Helios Dr. Horst Schmidt Kliniken Wiesbaden"},{"lat":49.453772431917,"lon":11.067578458315001,"COVID-19 aktuell":0,"Klinikname":"Kliniken Dr. Erler gGmbH"},{"lat":51.125864188733,"lon":7.8970010876489996,"COVID-19 aktuell":0,"Klinikname":"Helios Klinik Attendorn"},{"lat":51.398310373362996,"lon":9.658112168345,"COVID-19 aktuell":1,"Klinikname":"Klinikum Hann Münden"},{"lat":48.861198065029,"lon":8.203990638239999,"COVID-19 aktuell":0,"Klinikname":"Klinikum Mittelbaden Rastatt"},{"lat":53.848626436477005,"lon":13.699016690271002,"COVID-19 aktuell":0,"Klinikname":"AMEOS Klinikum Anklam"},{"lat":51.191045128469,"lon":6.670398205511,"COVID-19 aktuell":3,"Klinikname":"Lukaskrankenhaus Neuss, Rheinlandklinikum"},{"lat":50.991660570445006,"lon":13.645339464893,"COVID-19 aktuell":1,"Klinikname":"Helios Weisseritztal-Klinikum Freital"},{"lat":50.885268754734,"lon":11.621468782358999,"COVID-19 aktuell":0,"Klinikname":"Universitätsklinikum Jena, Sektion Neonatologie/ Pädiatrische Intensivmedizin"},{"lat":53.740200697820995,"lon":14.022625207916999,"COVID-19 aktuell":0,"Klinikname":"AMEOS Klinikum Ueckermünde"},{"lat":49.007379382061,"lon":13.217880964312,"COVID-19 aktuell":0,"Klinikname":"Arberlandklinik Zwiesel"},{"lat":50.80949752165999,"lon":12.551699638334,"COVID-19 aktuell":0,"Klinikname":"Rudolf Virchow Klinikum Glauchau"},{"lat":47.74922932974,"lon":11.460300881881,"COVID-19 aktuell":0,"Klinikname":"m&i-Fachklinik Bad Heilbrunn"},{"lat":49.577071297512,"lon":10.870107002555999,"COVID-19 aktuell":0,"Klinikname":"m&i Fachklinik Herzogenaurach"},{"lat":48.102343257345,"lon":11.547908233669999,"COVID-19 aktuell":1,"Klinikname":"Internistisches Klinikum München Süd"},{"lat":49.257505260318005,"lon":6.852072000438,"COVID-19 aktuell":8,"Klinikname":"SHG Kliniken Völklingen"},{"lat":48.643031007474,"lon":11.779112415388,"COVID-19 aktuell":0,"Klinikname":"Ilmtalklinik Mainburg"},{"lat":49.484503758062,"lon":10.974964678292,"COVID-19 aktuell":0,"Klinikname":"Klinikum Fürth"},{"lat":48.956965663396,"lon":10.597310185448999,"COVID-19 aktuell":0,"Klinikname":"Klinik Oettingen"},{"lat":49.447566390886,"lon":11.867033385743001,"COVID-19 aktuell":0,"Klinikname":"Klinikum St. Marien Amberg"},{"lat":49.746453779327,"lon":8.103998422557,"COVID-19 aktuell":1,"Klinikname":"DRK Krankenhaus Alzey"},{"lat":49.779360014783,"lon":11.179640293120999,"COVID-19 aktuell":0,"Klinikname":"Klinikum Forchheim-Fränkische Schweiz, Standort Ebermannstadt"},{"lat":51.031982481937,"lon":7.03340435015,"COVID-19 aktuell":2,"Klinikname":"Klinikum Leverkusen"},{"lat":50.72295103401301,"lon":12.434322523832,"COVID-19 aktuell":0,"Klinikname":"HBK Zwickau gGmbH Kinderzentrum"},{"lat":48.102795851913996,"lon":11.548877477580001,"COVID-19 aktuell":1,"Klinikname":"Chirurgisches Klinikum München Süd"},{"lat":48.311230925056,"lon":10.156311035189,"COVID-19 aktuell":4,"Klinikname":"Stiftungsklinik Weißenhorn"},{"lat":48.111138440404,"lon":11.471995174934001,"COVID-19 aktuell":0,"Klinikname":"Pädiatrische Intensivstation LMU Großhadern"},{"lat":48.77000070959001,"lon":11.377020836006999,"COVID-19 aktuell":6,"Klinikname":"Klinikum Ingolstadt"},{"lat":50.33391762045999,"lon":7.726969152835999,"COVID-19 aktuell":0,"Klinikname":"Hufeland-Klinik Bad Ems"},{"lat":51.722803060715,"lon":8.747577862814,"COVID-19 aktuell":1,"Klinikname":"Evangelisches Johannisstift Paderborn"},{"lat":53.07966086904899,"lon":8.877590417796,"COVID-19 aktuell":0,"Klinikname":"Paracelsus-Klinik Bremen"}]